[
{
"airport":"DGAA",
"a":11710,
"al":184,
"h":22.22,
"latitude":5.58982,
"longitude":-0.17354
},
{
"airport":"DGLE",
"a":7950,
"al":135,
"h":224.36,
"latitude":9.56506,
"longitude":-0.85546
},
{
"airport":"DBBO",
"a":6260,
"al":184,
"h":228.7,
"latitude":11.052,
"longitude":0.99927
},
{
"airport":"DFEG",
"a":5070,
"al":89,
"h":224.17,
"latitude":14.4601,
"longitude":-0.21309
},
{
"airport":"GAGO",
"a":8200,
"al":151,
"h":62.43,
"latitude":16.2433,
"longitude":-0.01567
},
{
"airport":"GABR",
"a":5230,
"al":0,
"h":246.11,
"latitude":17.0291,
"longitude":-0.39961
},
{
"airport":"GATS",
"a":8180,
"al":89,
"h":225.7,
"latitude":20.2508,
"longitude":0.98579
},
{
"airport":"DATM",
"a":9800,
"al":141,
"h":78.07,
"latitude":21.3749,
"longitude":0.91185
},
{
"airport":"DATM",
"a":7200,
"al":151,
"h":78.05,
"latitude":21.3735,
"longitude":0.91644
},
{
"airport":"DAAN",
"a":10490,
"al":148,
"h":71.25,
"latitude":26.7096,
"longitude":0.27259
},
{
"airport":"DAAN",
"a":11140,
"al":141,
"h":71.22,
"latitude":26.7065,
"longitude":0.27376
},
{
"airport":"DAUA",
"a":9830,
"al":138,
"h":219.58,
"latitude":27.8481,
"longitude":-0.17685
},
{
"airport":"DAUT",
"a":9830,
"al":121,
"h":236.41,
"latitude":29.244,
"longitude":0.28889
},
{
"airport":"DA12",
"a":6410,
"al":105,
"h":294.91,
"latitude":32.8946,
"longitude":0.53431
},
{
"airport":"DAAY",
"a":9580,
"al":95,
"h":160.25,
"latitude":33.5353,
"longitude":-0.24208
},
{
"airport":"DAAY",
"a":11800,
"al":141,
"h":234.32,
"latitude":33.5435,
"longitude":-0.22908
},
{
"airport":"DAOE",
"a":9820,
"al":154,
"h":64.75,
"latitude":35.7295,
"longitude":-0.82032
},
{
"airport":"DAOE",
"a":9440,
"al":79,
"h":64.75,
"latitude":35.7276,
"longitude":-0.81857
},
{
"airport":"DAOL",
"a":7980,
"al":141,
"h":75.62,
"latitude":35.5399,
"longitude":-0.54359
},
{
"airport":"DAOO",
"a":11830,
"al":141,
"h":67.16,
"latitude":35.6166,
"longitude":-0.64207
},
{
"airport":"DAOO",
"a":9830,
"al":131,
"h":67.21,
"latitude":35.6141,
"longitude":-0.6408
},
{
"airport":"DAOV",
"a":5580,
"al":92,
"h":80.06,
"latitude":35.2064,
"longitude":0.13796
},
{
"airport":"LELC",
"a":7605,
"al":0,
"h":225.75,
"latitude":37.7822,
"longitude":-0.80276
},
{
"airport":"LELC",
"a":5184,
"al":148,
"h":45.77,
"latitude":37.7766,
"longitude":-0.82041
},
{
"airport":"LEAL",
"a":9830,
"al":144,
"h":100.07,
"latitude":38.2845,
"longitude":-0.57497
},
{
"airport":"LEVC",
"a":10540,
"al":141,
"h":296.28,
"latitude":39.4836,
"longitude":-0.46659
},
{
"airport":"LEDA",
"a":8170,
"al":190,
"h":313.36,
"latitude":41.7203,
"longitude":0.54632
},
{
"airport":"LEHC",
"a":6910,
"al":138,
"h":122.87,
"latitude":42.0809,
"longitude":-0.32728
},
{
"airport":"LFBP",
"a":8160,
"al":148,
"h":125.9,
"latitude":43.3877,
"longitude":-0.43322
},
{
"airport":"LFBT",
"a":9840,
"al":141,
"h":200.29,
"latitude":43.1913,
"longitude":4e-05
},
{
"airport":"LFDH",
"a":6250,
"al":98,
"h":183.57,
"latitude":43.6922,
"longitude":0.60051
},
{
"airport":"LFBM",
"a":11873,
"al":0,
"h":267.24,
"latitude":43.9123,
"longitude":-0.48687
},
{
"airport":"LFBD",
"a":10110,
"al":141,
"h":225.38,
"latitude":44.8387,
"longitude":-0.70102
},
{
"airport":"LFBD",
"a":8630,
"al":141,
"h":286.42,
"latitude":44.8254,
"longitude":-0.70001
},
{
"airport":"LFBE",
"a":7240,
"al":141,
"h":94.34,
"latitude":44.8253,
"longitude":0.50486
},
{
"airport":"LFBA",
"a":7100,
"al":92,
"h":112.24,
"latitude":44.1777,
"longitude":0.58042
},
{
"airport":"LFDN",
"a":7460,
"al":131,
"h":122.67,
"latitude":45.8962,
"longitude":-0.99724
},
{
"airport":"LFBU",
"a":6100,
"al":148,
"h":96.9,
"latitude":45.7306,
"longitude":0.20651
},
{
"airport":"LFBX",
"a":5740,
"al":89,
"h":113.71,
"latitude":45.2004,
"longitude":0.80573
},
{
"airport":"LFBG",
"a":6516,
"al":0,
"h":49.52,
"latitude":45.6471,
"longitude":-0.32656
},
{
"airport":"LFBN",
"a":6170,
"al":92,
"h":247.36,
"latitude":46.3146,
"longitude":-0.39018
},
{
"airport":"LFBI",
"a":7710,
"al":135,
"h":30.5,
"latitude":46.5796,
"longitude":0.30016
},
{
"airport":"LFJR",
"a":5940,
"al":148,
"h":81.46,
"latitude":47.5592,
"longitude":-0.32467
},
{
"airport":"LFOT",
"a":7943,
"al":0,
"h":15.26,
"latitude":47.4218,
"longitude":0.72344
},
{
"airport":"LFOV",
"a":5840,
"al":95,
"h":142.4,
"latitude":48.0383,
"longitude":-0.7509
},
{
"airport":"LFRK",
"a":6230,
"al":141,
"h":125.32,
"latitude":49.1809,
"longitude":-0.46643
},
{
"airport":"LFOH",
"a":7500,
"al":128,
"h":43.05,
"latitude":49.5266,
"longitude":0.07765
},
{
"airport":"LFOS",
"a":5300,
"al":174,
"h":243.91,
"latitude":49.8375,
"longitude":0.66118
},
{
"airport":"LFRG",
"a":8370,
"al":141,
"h":297.24,
"latitude":49.36,
"longitude":0.16991
},
{
"airport":"EGGW",
"a":7080,
"al":144,
"h":74.34,
"latitude":51.872,
"longitude":-0.38356
},
{
"airport":"EGLL",
"a":12820,
"al":164,
"h":89.7,
"latitude":51.4775,
"longitude":-0.48949
},
{
"airport":"EGLL",
"a":12000,
"al":171,
"h":89.67,
"latitude":51.4648,
"longitude":-0.48679
},
{
"airport":"EGWU",
"a":5490,
"al":141,
"h":249.81,
"latitude":51.5553,
"longitude":-0.40829
},
{
"airport":"EGVO",
"a":5980,
"al":148,
"h":92.63,
"latitude":51.2345,
"longitude":-0.9558
},
{
"airport":"EGKK",
"a":10880,
"al":148,
"h":257.59,
"latitude":51.1515,
"longitude":-0.16596
},
{
"airport":"EGKK",
"a":8400,
"al":148,
"h":257.62,
"latitude":51.1518,
"longitude":-0.17678
},
{
"airport":"EGLF",
"a":8490,
"al":154,
"h":61.9,
"latitude":51.2699,
"longitude":-0.79393
},
{
"airport":"EGTD",
"a":6950,
"al":148,
"h":66.54,
"latitude":51.1139,
"longitude":-0.54828
},
{
"airport":"EGLC",
"a":4920,
"al":98,
"h":92.86,
"latitude":51.5056,
"longitude":0.04437
},
{
"airport":"EGMC",
"a":6470,
"al":118,
"h":234.09,
"latitude":51.5756,
"longitude":0.70482
},
{
"airport":"EGSS",
"a":9970,
"al":141,
"h":222.8,
"latitude":51.8951,
"longitude":0.24999
},
{
"airport":"EGSX",
"a":6130,
"al":148,
"h":195.66,
"latitude":51.73,
"longitude":0.15815
},
{
"airport":"EGVT",
"a":9050,
"al":144,
"h":94.96,
"latitude":51.9751,
"longitude":0.48729
},
{
"airport":"EGKB",
"a":5890,
"al":148,
"h":25.7,
"latitude":51.3237,
"longitude":0.02686
},
{
"airport":"EGXJ",
"a":9000,
"al":194,
"h":41.26,
"latitude":52.7265,
"longitude":-0.6621
},
{
"airport":"EGXJ",
"a":7890,
"al":56,
"h":41.22,
"latitude":52.7289,
"longitude":-0.66242
},
{
"airport":"EGYE",
"a":6120,
"al":151,
"h":237.38,
"latitude":52.9675,
"longitude":-0.54856
},
{
"airport":"EGTC",
"a":5690,
"al":148,
"h":31.67,
"latitude":52.0657,
"longitude":-0.62312
},
{
"airport":"EGXT",
"a":9020,
"al":177,
"h":73.11,
"latitude":52.6094,
"longitude":-0.49563
},
{
"airport":"EGUP",
"a":8970,
"al":148,
"h":53.46,
"latitude":52.8387,
"longitude":0.74946
},
{
"airport":"EGSC",
"a":6430,
"al":131,
"h":229.81,
"latitude":52.2107,
"longitude":0.18599
},
{
"airport":"EGUL",
"a":8960,
"al":135,
"h":235.61,
"latitude":52.4163,
"longitude":0.57763
},
{
"airport":"EGUN",
"a":11220,
"al":141,
"h":103.29,
"latitude":52.3655,
"longitude":0.46189
},
{
"airport":"EGYM",
"a":5890,
"al":112,
"h":188.54,
"latitude":52.655,
"longitude":0.55964
},
{
"airport":"EGYM",
"a":9130,
"al":131,
"h":235.39,
"latitude":52.6554,
"longitude":0.5674
},
{
"airport":"EGUW",
"a":7940,
"al":148,
"h":227.83,
"latitude":52.1343,
"longitude":0.96856
},
{
"airport":"EGXH",
"a":8957,
"al":0,
"h":261.29,
"latitude":52.3447,
"longitude":0.79284
},
{
"airport":"EGCN",
"a":9480,
"al":187,
"h":197.61,
"latitude":53.4877,
"longitude":-0.99754
},
{
"airport":"EGNJ",
"a":7190,
"al":141,
"h":202.29,
"latitude":53.5836,
"longitude":-0.34442
},
{
"airport":"EGNE",
"a":5860,
"al":82,
"h":24.94,
"latitude":53.2734,
"longitude":-0.95699
},
{
"airport":"EGXC",
"a":8990,
"al":184,
"h":71.92,
"latitude":53.0893,
"longitude":-0.18564
},
{
"airport":"EGXP",
"a":8980,
"al":180,
"h":221.11,
"latitude":53.3172,
"longitude":-0.53726
},
{
"airport":"EGXW",
"a":9700,
"al":174,
"h":201.64,
"latitude":53.1784,
"longitude":-0.51578
},
{
"airport":"EGXY",
"a":5930,
"al":144,
"h":242.44,
"latitude":53.0268,
"longitude":-0.90052
},
{
"airport":"EGYD",
"a":6980,
"al":135,
"h":262.7,
"latitude":53.0309,
"longitude":-0.47696
},
{
"airport":"EGYI",
"a":5540,
"al":148,
"h":257.14,
"latitude":53.3099,
"longitude":0.18228
},
{
"airport":"NZSP",
"a":12000,
"al":0,
"h":-8.4,
"latitude":-89.8606,
"longitude":0.27357
},
{
"airport":"DXXX",
"a":9850,
"al":144,
"h":218.4,
"latitude":6.17633,
"longitude":1.26259
},
{
"airport":"DXNG",
"a":8200,
"al":194,
"h":202.8,
"latitude":9.77765,
"longitude":1.09561
},
{
"airport":"DAAF",
"a":6270,
"al":98,
"h":79.11,
"latitude":27.0607,
"longitude":1.10157
},
{
"airport":"DAOY",
"a":9790,
"al":141,
"h":42.45,
"latitude":33.712,
"longitude":1.08149
},
{
"airport":"DAOB",
"a":9840,
"al":148,
"h":260.92,
"latitude":35.3431,
"longitude":1.47937
},
{
"airport":"DAOI",
"a":5280,
"al":89,
"h":66.33,
"latitude":36.2097,
"longitude":1.32333
},
{
"airport":"DAOI",
"a":9130,
"al":141,
"h":77.2,
"latitude":36.2141,
"longitude":1.32504
},
{
"airport":"LEIB",
"a":9180,
"al":135,
"h":61.99,
"latitude":38.867,
"longitude":1.35888
},
{
"airport":"LERS",
"a":8040,
"al":141,
"h":68.82,
"latitude":41.1441,
"longitude":1.15586
},
{
"airport":"LFBO",
"a":11480,
"al":125,
"h":323.01,
"latitude":43.619,
"longitude":1.37209
},
{
"airport":"LFBO",
"a":9940,
"al":131,
"h":323.04,
"latitude":43.6156,
"longitude":1.38024
},
{
"airport":"LFBF",
"a":5900,
"al":144,
"h":114.95,
"latitude":43.5491,
"longitude":1.35719
},
{
"airport":"LFIO",
"a":5988,
"al":0,
"h":138.81,
"latitude":43.5752,
"longitude":1.47359
},
{
"airport":"LFBL",
"a":8010,
"al":151,
"h":33.14,
"latitude":45.8525,
"longitude":1.17254
},
{
"airport":"LFLX",
"a":11480,
"al":0,
"h":213.16,
"latitude":46.876,
"longitude":1.7432
},
{
"airport":"LFXU",
"a":6390,
"al":154,
"h":99.41,
"latitude":48.9999,
"longitude":1.9296
},
{
"airport":"LFXU",
"a":6390,
"al":157,
"h":99.34,
"latitude":48.9994,
"longitude":1.92948
},
{
"airport":"LFOC",
"a":7297,
"al":0,
"h":97.88,
"latitude":48.0595,
"longitude":1.36163
},
{
"airport":"LFOP",
"a":5560,
"al":141,
"h":221.15,
"latitude":49.3909,
"longitude":1.18384
},
{
"airport":"LFOE",
"a":9902,
"al":0,
"h":219.87,
"latitude":49.0392,
"longitude":1.23321
},
{
"airport":"LFAC",
"a":5040,
"al":138,
"h":240.92,
"latitude":50.9655,
"longitude":1.96433
},
{
"airport":"LFAT",
"a":7040,
"al":118,
"h":133.5,
"latitude":50.5258,
"longitude":1.60937
},
{
"airport":"EGMH",
"a":9020,
"al":187,
"h":101.26,
"latitude":51.3445,
"longitude":1.32675
},
{
"airport":"EGYC",
"a":7480,
"al":138,
"h":35.73,
"latitude":52.7466,
"longitude":1.34774
},
{
"airport":"EGSH",
"a":6030,
"al":138,
"h":89.27,
"latitude":52.6758,
"longitude":1.26904
},
{
"airport":"DBBB",
"a":7740,
"al":144,
"h":52.86,
"latitude":6.35092,
"longitude":2.37604
},
{
"airport":"DBBC",
"a":7720,
"al":131,
"h":41.77,
"latitude":7.11675,
"longitude":2.03908
},
{
"airport":"DBBP",
"a":5360,
"al":171,
"h":216.78,
"latitude":9.36278,
"longitude":2.61351
},
{
"airport":"DRRN",
"a":9800,
"al":157,
"h":87.31,
"latitude":13.4816,
"longitude":2.16946
},
{
"airport":"DAUI",
"a":9820,
"al":144,
"h":230.83,
"latitude":27.2593,
"longitude":2.52354
},
{
"airport":"DAUE",
"a":5900,
"al":144,
"h":102.46,
"latitude":30.5703,
"longitude":2.85768
},
{
"airport":"DAUE",
"a":9800,
"al":148,
"h":179.7,
"latitude":30.5994,
"longitude":2.8614
},
{
"airport":"DAUL",
"a":12410,
"al":128,
"h":157.06,
"latitude":33.7804,
"longitude":2.9214
},
{
"airport":"DAUL",
"a":12410,
"al":138,
"h":157.05,
"latitude":33.7796,
"longitude":2.9193
},
{
"airport":"DAAQ",
"a":10630,
"al":148,
"h":91.23,
"latitude":35.5269,
"longitude":2.86089
},
{
"airport":"DAAQ",
"a":10450,
"al":141,
"h":91.21,
"latitude":35.5246,
"longitude":2.86116
},
{
"airport":"DAAB",
"a":5960,
"al":95,
"h":66.05,
"latitude":36.5006,
"longitude":2.80511
},
{
"airport":"DAAK",
"a":11800,
"al":131,
"h":222.78,
"latitude":36.5577,
"longitude":2.88995
},
{
"airport":"LEPA",
"a":10910,
"al":144,
"h":58.44,
"latitude":39.5472,
"longitude":2.71078
},
{
"airport":"LEPA",
"a":9820,
"al":141,
"h":58.44,
"latitude":39.5413,
"longitude":2.73176
},
{
"airport":"LEGE",
"a":7850,
"al":128,
"h":15.71,
"latitude":41.895,
"longitude":2.75829
},
{
"airport":"LEBL",
"a":8270,
"al":148,
"h":198.95,
"latitude":41.3092,
"longitude":2.09463
},
{
"airport":"LEBL",
"a":8690,
"al":194,
"h":245.51,
"latitude":41.2922,
"longitude":2.10321
},
{
"airport":"LEBL",
"a":11430,
"al":197,
"h":245.53,
"latitude":41.3057,
"longitude":2.10368
},
{
"airport":"LFMP",
"a":8200,
"al":148,
"h":328.37,
"latitude":42.735,
"longitude":2.87774
},
{
"airport":"LFCK",
"a":5970,
"al":89,
"h":141.3,
"latitude":43.5626,
"longitude":2.28213
},
{
"airport":"LFMK",
"a":6850,
"al":148,
"h":276.3,
"latitude":43.215,
"longitude":2.31825
},
{
"airport":"LFCR",
"a":6750,
"al":141,
"h":129.06,
"latitude":44.4137,
"longitude":2.47256
},
{
"airport":"LFLW",
"a":5570,
"al":98,
"h":149.93,
"latitude":44.8977,
"longitude":2.41661
},
{
"airport":"LFBK",
"a":6240,
"al":141,
"h":167.13,
"latitude":46.231,
"longitude":2.36119
},
{
"airport":"LFLD",
"a":5520,
"al":138,
"h":238.83,
"latitude":47.0645,
"longitude":2.37897
},
{
"airport":"LFOA",
"a":11480,
"al":0,
"h":60.39,
"latitude":47.048,
"longitude":2.61181
},
{
"airport":"LFPB",
"a":8890,
"al":194,
"h":204.78,
"latitude":48.9708,
"longitude":2.44241
},
{
"airport":"LFPB",
"a":9800,
"al":141,
"h":247.79,
"latitude":48.974,
"longitude":2.45814
},
{
"airport":"LFPB",
"a":6050,
"al":141,
"h":265.26,
"latitude":48.965,
"longitude":2.44554
},
{
"airport":"LFPG",
"a":8860,
"al":187,
"h":265.38,
"latitude":48.9949,
"longitude":2.60249
},
{
"airport":"LFPG",
"a":13830,
"al":151,
"h":265.37,
"latitude":48.9988,
"longitude":2.61024
},
{
"airport":"LFPM",
"a":6360,
"al":141,
"h":103.57,
"latitude":48.6065,
"longitude":2.66332
},
{
"airport":"LFPO",
"a":7870,
"al":190,
"h":18.29,
"latitude":48.7176,
"longitude":2.3767
},
{
"airport":"LFPO",
"a":11980,
"al":144,
"h":61.78,
"latitude":48.72,
"longitude":2.31688
},
{
"airport":"LFPO",
"a":10900,
"al":141,
"h":74.36,
"latitude":48.7194,
"longitude":2.35853
},
{
"airport":"LFPV",
"a":5942,
"al":0,
"h":88.34,
"latitude":48.7741,
"longitude":2.18928
},
{
"airport":"LFPY",
"a":9833,
"al":0,
"h":43.11,
"latitude":48.5912,
"longitude":2.32536
},
{
"airport":"LFPY",
"a":7157,
"al":0,
"h":111.61,
"latitude":48.598,
"longitude":2.3245
},
{
"airport":"FAKE",
"a":500,
"al":100,
"h":0,
"latitude":48.8545,
"longitude":2.30031
},
{
"airport":"LFAQ",
"a":7210,
"al":141,
"h":85.24,
"latitude":49.9693,
"longitude":2.67863
},
{
"airport":"LFOB",
"a":7940,
"al":148,
"h":123.74,
"latitude":49.4583,
"longitude":2.10374
},
{
"airport":"LFPG",
"a":13780,
"al":148,
"h":265.35,
"latitude":49.0237,
"longitude":2.57037
},
{
"airport":"LFPG",
"a":8890,
"al":197,
"h":265.34,
"latitude":49.0267,
"longitude":2.56171
},
{
"airport":"LFPT",
"a":5550,
"al":148,
"h":44.53,
"latitude":49.0878,
"longitude":2.02741
},
{
"airport":"LFPT",
"a":5270,
"al":161,
"h":118.01,
"latitude":49.1019,
"longitude":2.02551
},
{
"airport":"LFPC",
"a":7208,
"al":164,
"h":65.16,
"latitude":49.2498,
"longitude":2.50667
},
{
"airport":"EBOS",
"a":10480,
"al":151,
"h":256.46,
"latitude":51.2032,
"longitude":2.89719
},
{
"airport":"EBFN",
"a":6506,
"al":0,
"h":11.94,
"latitude":51.0862,
"longitude":2.65537
},
{
"airport":"EBFN",
"a":8724,
"al":0,
"h":288.28,
"latitude":51.0864,
"longitude":2.67088
},
{
"airport":"DNMM",
"a":9330,
"al":141,
"h":179.34,
"latitude":6.59727,
"longitude":3.32886
},
{
"airport":"DNMM",
"a":12790,
"al":187,
"h":179.38,
"latitude":6.58764,
"longitude":3.31315
},
{
"airport":"DNIB",
"a":8220,
"al":144,
"h":39.9,
"latitude":7.35378,
"longitude":3.97104
},
{
"airport":"DRRG",
"a":5250,
"al":82,
"h":235.87,
"latitude":11.8939,
"longitude":3.43372
},
{
"airport":"DAFH",
"a":9820,
"al":144,
"h":79.14,
"latitude":32.9278,
"longitude":3.29576
},
{
"airport":"DAFH",
"a":6560,
"al":95,
"h":88.2,
"latitude":32.9318,
"longitude":3.29529
},
{
"airport":"DAUG",
"a":10140,
"al":187,
"h":302.4,
"latitude":32.3692,
"longitude":3.82286
},
{
"airport":"DAUG",
"a":7850,
"al":144,
"h":2.78,
"latitude":32.3834,
"longitude":3.79464
},
{
"airport":"DAFI",
"a":6330,
"al":164,
"h":309.15,
"latitude":34.6615,
"longitude":3.35741
},
{
"airport":"DAAG",
"a":11480,
"al":135,
"h":91.68,
"latitude":36.6921,
"longitude":3.17075
},
{
"airport":"LFCM",
"a":5570,
"al":98,
"h":142.39,
"latitude":43.9954,
"longitude":3.17652
},
{
"airport":"LFMU",
"a":6550,
"al":135,
"h":94.37,
"latitude":43.324,
"longitude":3.34237
},
{
"airport":"LFMT",
"a":8550,
"al":138,
"h":124.78,
"latitude":43.5861,
"longitude":3.9557
},
{
"airport":"LFLC",
"a":9380,
"al":82,
"h":262.01,
"latitude":45.7884,
"longitude":3.18733
},
{
"airport":"LFQG",
"a":5330,
"al":95,
"h":301.99,
"latitude":46.9988,
"longitude":3.12243
},
{
"airport":"LFLV",
"a":7210,
"al":131,
"h":8.11,
"latitude":46.16,
"longitude":3.40162
},
{
"airport":"LFLA",
"a":5400,
"al":82,
"h":5.47,
"latitude":47.843,
"longitude":3.49609
},
{
"airport":"LFPK",
"a":5220,
"al":66,
"h":90.55,
"latitude":48.8376,
"longitude":3.00358
},
{
"airport":"EBKT",
"a":6220,
"al":131,
"h":241.9,
"latitude":50.8228,
"longitude":3.22093
},
{
"airport":"LFAV",
"a":5600,
"al":157,
"h":110.86,
"latitude":50.3286,
"longitude":3.45004
},
{
"airport":"LFQQ",
"a":5160,
"al":95,
"h":194.8,
"latitude":50.5738,
"longitude":3.09114
},
{
"airport":"LFQQ",
"a":9350,
"al":144,
"h":257.4,
"latitude":50.5685,
"longitude":3.12235
},
{
"airport":"EBCV",
"a":8190,
"al":141,
"h":79.98,
"latitude":50.5748,
"longitude":3.82135
},
{
"airport":"LFQI",
"a":8248,
"al":164,
"h":94.08,
"latitude":50.2226,
"longitude":3.1366
},
{
"airport":"DNIL",
"a":10140,
"al":194,
"h":49.09,
"latitude":8.43101,
"longitude":4.4834
},
{
"airport":"DNIX",
"a":10966,
"al":0,
"h":36,
"latitude":9.88047,
"longitude":4.47647
},
{
"airport":"DAAD",
"a":7190,
"al":121,
"h":41.69,
"latitude":35.3254,
"longitude":4.19788
},
{
"airport":"LEMH",
"a":8360,
"al":135,
"h":189,
"latitude":39.8739,
"longitude":4.22098
},
{
"airport":"LESL",
"a":5630,
"al":72,
"h":19.4,
"latitude":39.8541,
"longitude":4.24831
},
{
"airport":"LFMI",
"a":12287,
"al":194,
"h":152.67,
"latitude":43.5378,
"longitude":4.91331
},
{
"airport":"LFTW",
"a":8612,
"al":148,
"h":177.03,
"latitude":43.7692,
"longitude":4.4155
},
{
"airport":"LFLU",
"a":6890,
"al":138,
"h":7.75,
"latitude":44.9122,
"longitude":4.96806
},
{
"airport":"LF51",
"a":6570,
"al":102,
"h":160.89,
"latitude":44.1879,
"longitude":4.91486
},
{
"airport":"LFMO",
"a":9961,
"al":0,
"h":144.11,
"latitude":44.1511,
"longitude":4.85749
},
{
"airport":"LFLY",
"a":5960,
"al":138,
"h":163.43,
"latitude":45.735,
"longitude":4.94095
},
{
"airport":"LFMH",
"a":7550,
"al":121,
"h":175.04,
"latitude":45.5511,
"longitude":4.29515
},
{
"airport":"LFLN",
"a":6630,
"al":141,
"h":328.14,
"latitude":46.4066,
"longitude":4.02105
},
{
"airport":"LFOK",
"a":12660,
"al":144,
"h":101.22,
"latitude":48.7796,
"longitude":4.15846
},
{
"airport":"LFQB",
"a":5390,
"al":89,
"h":173.75,
"latitude":48.3294,
"longitude":4.01537
},
{
"airport":"LFSI",
"a":9754,
"al":0,
"h":113.05,
"latitude":48.6413,
"longitude":4.88071
},
{
"airport":"LFQV",
"a":5020,
"al":89,
"h":112.14,
"latitude":49.7866,
"longitude":4.63708
},
{
"airport":"LFSR",
"a":8133,
"al":157,
"h":67.47,
"latitude":49.3057,
"longitude":4.03433
},
{
"airport":"EBBR",
"a":9800,
"al":154,
"h":194.42,
"latitude":50.9129,
"longitude":4.50202
},
{
"airport":"EBBR",
"a":10530,
"al":144,
"h":249.9,
"latitude":50.8989,
"longitude":4.52333
},
{
"airport":"EBBR",
"a":11930,
"al":138,
"h":245.4,
"latitude":50.9127,
"longitude":4.50331
},
{
"airport":"EBCI",
"a":8370,
"al":141,
"h":65.47,
"latitude":50.4552,
"longitude":4.43672
},
{
"airport":"EBBE",
"a":10052,
"al":0,
"h":38.8,
"latitude":50.7469,
"longitude":4.75337
},
{
"airport":"EBFS",
"a":11122,
"al":0,
"h":79.52,
"latitude":50.2408,
"longitude":4.62544
},
{
"airport":"EBFS",
"a":7359,
"al":0,
"h":79.5,
"latitude":50.2362,
"longitude":4.63195
},
{
"airport":"EBMB",
"a":10108,
"al":148,
"h":65.4,
"latitude":50.9,
"longitude":4.45956
},
{
"airport":"EBMB",
"a":8934,
"al":164,
"h":194.48,
"latitude":50.911,
"longitude":4.50124
},
{
"airport":"EHRD",
"a":7220,
"al":144,
"h":57.05,
"latitude":51.9521,
"longitude":4.42823
},
{
"airport":"EBWE",
"a":8880,
"al":154,
"h":68.27,
"latitude":51.39,
"longitude":4.94022
},
{
"airport":"EBWE",
"a":5390,
"al":118,
"h":68.36,
"latitude":51.3916,
"longitude":4.95107
},
{
"airport":"EHGR",
"a":6404,
"al":0,
"h":198.06,
"latitude":51.5726,
"longitude":4.94217
},
{
"airport":"EHGR",
"a":9026,
"al":0,
"h":280.2,
"latitude":51.5652,
"longitude":4.95118
},
{
"airport":"EHWO",
"a":7930,
"al":0,
"h":69.37,
"latitude":51.4452,
"longitude":4.32589
},
{
"airport":"EHVB",
"a":7990,
"al":213,
"h":231.75,
"latitude":52.1729,
"longitude":4.43195
},
{
"airport":"EHAM",
"a":11350,
"al":141,
"h":86.78,
"latitude":52.3166,
"longitude":4.74619
},
{
"airport":"EHAM",
"a":6630,
"al":135,
"h":221.2,
"latitude":52.314,
"longitude":4.80303
},
{
"airport":"EHAM",
"a":11300,
"al":135,
"h":237.88,
"latitude":52.3044,
"longitude":4.77699
},
{
"airport":"EHAM",
"a":10820,
"al":154,
"h":183.22,
"latitude":52.3314,
"longitude":4.74003
},
{
"airport":"EHAM",
"a":11150,
"al":138,
"h":183.25,
"latitude":52.3213,
"longitude":4.78017
},
{
"airport":"EHAM",
"a":12460,
"al":194,
"h":183.2,
"latitude":52.3627,
"longitude":4.71194
},
{
"airport":"DN56",
"a":5801,
"al":0,
"h":125.12,
"latitude":5.62097,
"longitude":5.18253
},
{
"airport":"DNBE",
"a":7870,
"al":131,
"h":225.48,
"latitude":6.32409,
"longitude":5.60669
},
{
"airport":"DNAK",
"a":9180,
"al":151,
"h":204.07,
"latitude":7.25823,
"longitude":5.30602
},
{
"airport":"DNSO",
"a":9790,
"al":187,
"h":76.6,
"latitude":12.9128,
"longitude":5.19352
},
{
"airport":"DRRT",
"a":7020,
"al":98,
"h":239.51,
"latitude":14.8805,
"longitude":5.27433
},
{
"airport":"DATG",
"a":7220,
"al":89,
"h":82.21,
"latitude":19.5591,
"longitude":5.73919
},
{
"airport":"DAAT",
"a":10310,
"al":164,
"h":81.66,
"latitude":22.8072,
"longitude":5.42276
},
{
"airport":"DAAT",
"a":11710,
"al":164,
"h":201.97,
"latitude":22.8263,
"longitude":5.45747
},
{
"airport":"DAUU",
"a":9800,
"al":128,
"h":180.36,
"latitude":31.9291,
"longitude":5.41685
},
{
"airport":"DAUU",
"a":9870,
"al":148,
"h":196.01,
"latitude":31.9317,
"longitude":5.41339
},
{
"airport":"DAUB",
"a":9470,
"al":148,
"h":129.61,
"latitude":34.8016,
"longitude":5.72617
},
{
"airport":"DAUB",
"a":9350,
"al":82,
"h":129.63,
"latitude":34.8031,
"longitude":5.72824
},
{
"airport":"DAAE",
"a":7860,
"al":138,
"h":81.77,
"latitude":36.7104,
"longitude":5.0566
},
{
"airport":"DAAV",
"a":7850,
"al":148,
"h":351.04,
"latitude":36.7845,
"longitude":5.8756
},
{
"airport":"DAAS",
"a":7840,
"al":148,
"h":266.85,
"latitude":36.179,
"longitude":5.34043
},
{
"airport":"LFMA",
"a":5250,
"al":98,
"h":325.75,
"latitude":43.4994,
"longitude":5.37291
},
{
"airport":"LFML",
"a":11490,
"al":148,
"h":134.02,
"latitude":43.4491,
"longitude":5.19733
},
{
"airport":"LFML",
"a":7780,
"al":148,
"h":134.9,
"latitude":43.4409,
"longitude":5.20358
},
{
"airport":"LFMQ",
"a":5450,
"al":112,
"h":126.91,
"latitude":43.2568,
"longitude":5.77756
},
{
"airport":"LFXI",
"a":5537,
"al":0,
"h":155.2,
"latitude":44.0637,
"longitude":5.49117
},
{
"airport":"LFLL",
"a":8870,
"al":141,
"h":175.16,
"latitude":45.7351,
"longitude":5.09185
},
{
"airport":"LFLL",
"a":13180,
"al":141,
"h":175.15,
"latitude":45.7466,
"longitude":5.08593
},
{
"airport":"LFLS",
"a":10070,
"al":157,
"h":270.27,
"latitude":45.3629,
"longitude":5.34896
},
{
"airport":"LFLB",
"a":6590,
"al":128,
"h":176.73,
"latitude":45.647,
"longitude":5.87951
},
{
"airport":"LFXA",
"a":6558,
"al":0,
"h":187.54,
"latitude":45.9971,
"longitude":5.32984
},
{
"airport":"LFGJ",
"a":7310,
"al":141,
"h":54.33,
"latitude":47.0331,
"longitude":5.41535
},
{
"airport":"LFSD",
"a":6037,
"al":118,
"h":15.05,
"latitude":47.2642,
"longitude":5.08206
},
{
"airport":"LFSD",
"a":7871,
"al":148,
"h":354.98,
"latitude":47.2551,
"longitude":5.09637
},
{
"airport":"LFYD",
"a":5910,
"al":144,
"h":68.19,
"latitude":48.083,
"longitude":5.6519
},
{
"airport":"LFSO",
"a":7864,
"al":0,
"h":19.43,
"latitude":48.573,
"longitude":5.94912
},
{
"airport":"EBBX",
"a":9242,
"al":0,
"h":58.18,
"latitude":49.8851,
"longitude":5.2112
},
{
"airport":"LFQE",
"a":9669,
"al":0,
"h":13.54,
"latitude":49.214,
"longitude":5.66749
},
{
"airport":"LF52",
"a":7874,
"al":0,
"h":51,
"latitude":49.0187,
"longitude":5.86326
},
{
"airport":"EBLG",
"a":7660,
"al":141,
"h":45.14,
"latitude":50.6313,
"longitude":5.43019
},
{
"airport":"EBLG",
"a":12100,
"al":144,
"h":45.13,
"latitude":50.6272,
"longitude":5.42794
},
{
"airport":"EHBK",
"a":9000,
"al":144,
"h":212.55,
"latitude":50.9207,
"longitude":5.77918
},
{
"airport":"EBSL",
"a":9675,
"al":0,
"h":234.37,
"latitude":50.957,
"longitude":5.60943
},
{
"airport":"EBSU",
"a":8497,
"al":0,
"h":65.47,
"latitude":50.029,
"longitude":5.4224
},
{
"airport":"EBBL",
"a":7838,
"al":0,
"h":230.1,
"latitude":51.1739,
"longitude":5.48507
},
{
"airport":"EBBL",
"a":10125,
"al":0,
"h":50.07,
"latitude":51.1596,
"longitude":5.45317
},
{
"airport":"EHDP",
"a":9738,
"al":148,
"h":60.36,
"latitude":51.5107,
"longitude":5.83709
},
{
"airport":"EHEH",
"a":8234,
"al":0,
"h":214.99,
"latitude":51.4611,
"longitude":5.38685
},
{
"airport":"EHVK",
"a":9934,
"al":72,
"h":57.93,
"latitude":51.6484,
"longitude":5.69087
},
{
"airport":"EHVK",
"a":9934,
"al":151,
"h":57.93,
"latitude":51.65,
"longitude":5.68927
},
{
"airport":"EHDL",
"a":9675,
"al":0,
"h":16.92,
"latitude":52.047,
"longitude":5.86566
},
{
"airport":"EHSB",
"a":6989,
"al":148,
"h":91,
"latitude":52.1275,
"longitude":5.26063
},
{
"airport":"EHLW",
"a":6371,
"al":164,
"h":90.26,
"latitude":53.2286,
"longitude":5.74059
},
{
"airport":"EHLW",
"a":7858,
"al":164,
"h":55.38,
"latitude":53.2191,
"longitude":5.73777
},
{
"airport":"ENZV",
"a":7940,
"al":157,
"h":286.36,
"latitude":58.8757,
"longitude":5.6451
},
{
"airport":"ENZV",
"a":8650,
"al":249,
"h":359.12,
"latitude":58.8695,
"longitude":5.63804
},
{
"airport":"ENHD",
"a":6870,
"al":148,
"h":134.41,
"latitude":59.3507,
"longitude":5.19766
},
{
"airport":"ENBR",
"a":9780,
"al":148,
"h":350.53,
"latitude":60.2802,
"longitude":5.22259
},
{
"airport":"FGAB",
"a":7129,
"al":295,
"h":48.5,
"latitude":-1.41416,
"longitude":5.61793
},
{
"airport":"FPST",
"a":7280,
"al":138,
"h":283.52,
"latitude":0.37587,
"longitude":6.72175
},
{
"airport":"DNPO",
"a":9830,
"al":167,
"h":27.94,
"latitude":5.0036,
"longitude":6.94323
},
{
"airport":"DNAS",
"a":11122,
"al":0,
"h":108.07,
"latitude":6.20849,
"longitude":6.65209
},
{
"airport":"DNMN",
"a":11110,
"al":144,
"h":225.23,
"latitude":9.66305,
"longitude":6.47332
},
{
"airport":"DAAW",
"a":6120,
"al":125,
"h":68.02,
"latitude":28.1287,
"longitude":6.82409
},
{
"airport":"DAUH",
"a":9850,
"al":138,
"h":184.21,
"latitude":31.6863,
"longitude":6.14155
},
{
"airport":"DAUK",
"a":9830,
"al":148,
"h":188.49,
"latitude":33.0868,
"longitude":6.09202
},
{
"airport":"DAUO",
"a":6320,
"al":95,
"h":197.83,
"latitude":33.512,
"longitude":6.78228
},
{
"airport":"DAUO",
"a":9840,
"al":141,
"h":309.94,
"latitude":33.5101,
"longitude":6.78675
},
{
"airport":"DABT",
"a":9790,
"al":164,
"h":54.73,
"latitude":35.7441,
"longitude":6.29584
},
{
"airport":"DAAM",
"a":6660,
"al":92,
"h":79.88,
"latitude":36.1071,
"longitude":6.35375
},
{
"airport":"DABC",
"a":7840,
"al":138,
"h":136.19,
"latitude":36.2844,
"longitude":6.61487
},
{
"airport":"DABC",
"a":9790,
"al":148,
"h":159.17,
"latitude":36.2879,
"longitude":6.61073
},
{
"airport":"LFMD",
"a":5070,
"al":154,
"h":172.71,
"latitude":43.5544,
"longitude":6.9497
},
{
"airport":"LFTH",
"a":6227,
"al":148,
"h":51.32,
"latitude":43.0957,
"longitude":6.14325
},
{
"airport":"LFLP",
"a":5470,
"al":89,
"h":218.53,
"latitude":45.9351,
"longitude":6.10565
},
{
"airport":"LSMP",
"a":9580,
"al":118,
"h":228.42,
"latitude":46.852,
"longitude":6.92932
},
{
"airport":"LSMP",
"a":6680,
"al":82,
"h":228.46,
"latitude":46.849,
"longitude":6.92652
},
{
"airport":"LSGG",
"a":12800,
"al":180,
"h":225.45,
"latitude":46.2504,
"longitude":6.12703
},
{
"airport":"LFSM",
"a":5360,
"al":66,
"h":79.39,
"latitude":47.4853,
"longitude":6.78089
},
{
"airport":"LFSX",
"a":7976,
"al":0,
"h":293.06,
"latitude":47.783,
"longitude":6.36442
},
{
"airport":"LFJL",
"a":9970,
"al":128,
"h":39.1,
"latitude":48.9696,
"longitude":6.23586
},
{
"airport":"LFSN",
"a":5210,
"al":118,
"h":28.07,
"latitude":48.6864,
"longitude":6.22673
},
{
"airport":"LFSG",
"a":8850,
"al":144,
"h":265.11,
"latitude":48.3262,
"longitude":6.0881
},
{
"airport":"EDRB",
"a":9470,
"al":144,
"h":54.78,
"latitude":49.9363,
"longitude":6.54553
},
{
"airport":"ETAD",
"a":10000,
"al":148,
"h":44.57,
"latitude":49.9668,
"longitude":6.68354
},
{
"airport":"ELLX",
"a":13110,
"al":184,
"h":240.2,
"latitude":49.6354,
"longitude":6.23559
},
{
"airport":"LFSF",
"a":7869,
"al":148,
"h":9.77,
"latitude":49.0617,
"longitude":6.12996
},
{
"airport":"ETNG",
"a":10000,
"al":144,
"h":90.86,
"latitude":50.961,
"longitude":6.02005
},
{
"airport":"ETNN",
"a":9731,
"al":0,
"h":246.87,
"latitude":50.8365,
"longitude":6.67747
},
{
"airport":"EDLV",
"a":7990,
"al":148,
"h":92.01,
"latitude":51.6028,
"longitude":6.12454
},
{
"airport":"EDLE",
"a":5180,
"al":135,
"h":246.49,
"latitude":51.4058,
"longitude":6.94954
},
{
"airport":"ETUR",
"a":8180,
"al":82,
"h":84.25,
"latitude":51.1968,
"longitude":6.11512
},
{
"airport":"EDDL",
"a":9820,
"al":141,
"h":232.68,
"latitude":51.2959,
"longitude":6.78618
},
{
"airport":"EDDL",
"a":8870,
"al":148,
"h":232.7,
"latitude":51.2984,
"longitude":6.77949
},
{
"airport":"EHTW",
"a":9708,
"al":148,
"h":55.01,
"latitude":52.2682,
"longitude":6.8713
},
{
"airport":"EHGG",
"a":8190,
"al":141,
"h":231.83,
"latitude":53.1249,
"longitude":6.59025
},
{
"airport":"ENLI",
"a":9810,
"al":148,
"h":311.21,
"latitude":58.0909,
"longitude":6.64512
},
{
"airport":"ENAL",
"a":7540,
"al":148,
"h":64.62,
"latitude":62.556,
"longitude":6.08978
},
{
"airport":"FPPR",
"a":5735,
"al":0,
"h":179.98,
"latitude":1.6698,
"longitude":7.41099
},
{
"airport":"DNIM",
"a":9030,
"al":144,
"h":167.18,
"latitude":5.43946,
"longitude":7.20321
},
{
"airport":"DN52",
"a":8858,
"al":0,
"h":167.51,
"latitude":5.43891,
"longitude":7.20339
},
{
"airport":"DNEN",
"a":9820,
"al":148,
"h":260.13,
"latitude":6.47589,
"longitude":7.57225
},
{
"airport":"DNAA",
"a":11840,
"al":148,
"h":214.87,
"latitude":9.02008,
"longitude":7.27256
},
{
"airport":"DN53",
"a":8470,
"al":95,
"h":226.39,
"latitude":10.6067,
"longitude":7.45724
},
{
"airport":"DNKA",
"a":9820,
"al":190,
"h":49.55,
"latitude":10.6871,
"longitude":7.30971
},
{
"airport":"DNZA",
"a":5450,
"al":95,
"h":49.45,
"latitude":11.1253,
"longitude":7.67994
},
{
"airport":"DN57",
"a":11545,
"al":0,
"h":45.03,
"latitude":12.9962,
"longitude":7.64911
},
{
"airport":"DRRM",
"a":6060,
"al":82,
"h":83.83,
"latitude":13.5017,
"longitude":7.1181
},
{
"airport":"DRZA",
"a":9820,
"al":121,
"h":68,
"latitude":16.961,
"longitude":7.98706
},
{
"airport":"DRZL",
"a":6550,
"al":151,
"h":102.92,
"latitude":18.793,
"longitude":7.3563
},
{
"airport":"DABO",
"a":12100,
"al":135,
"h":77.08,
"latitude":35.8771,
"longitude":7.25653
},
{
"airport":"DABO",
"a":12120,
"al":115,
"h":167.12,
"latitude":35.8902,
"longitude":7.23338
},
{
"airport":"DABB",
"a":7490,
"al":141,
"h":231.74,
"latitude":36.8333,
"longitude":7.82684
},
{
"airport":"DABB",
"a":9840,
"al":135,
"h":6.91,
"latitude":36.8183,
"longitude":7.80876
},
{
"airport":"LFMN",
"a":8970,
"al":148,
"h":44.83,
"latitude":43.6518,
"longitude":7.2041
},
{
"airport":"LFMN",
"a":9710,
"al":141,
"h":44.85,
"latitude":43.6467,
"longitude":7.20251
},
{
"airport":"LIMZ",
"a":8160,
"al":141,
"h":32.47,
"latitude":44.5381,
"longitude":7.61478
},
{
"airport":"LIMW",
"a":5680,
"al":95,
"h":84.68,
"latitude":45.7379,
"longitude":7.35715
},
{
"airport":"LIMF",
"a":10830,
"al":194,
"h":2.55,
"latitude":45.1859,
"longitude":7.64869
},
{
"airport":"LSTS",
"a":6480,
"al":121,
"h":135.56,
"latitude":46.5037,
"longitude":7.40327
},
{
"airport":"LSZB",
"a":5660,
"al":102,
"h":140.19,
"latitude":46.9193,
"longitude":7.49085
},
{
"airport":"LSGS",
"a":6410,
"al":135,
"h":252.88,
"latitude":46.222,
"longitude":7.33938
},
{
"airport":"LSMI",
"a":6500,
"al":0,
"h":45.8,
"latitude":46.6703,
"longitude":7.86986
},
{
"airport":"LSMJ",
"a":6560,
"al":0,
"h":82,
"latitude":46.3026,
"longitude":7.70147
},
{
"airport":"LSMN",
"a":7546,
"al":0,
"h":90.1,
"latitude":46.3037,
"longitude":7.8084
},
{
"airport":"EDTG",
"a":5940,
"al":138,
"h":51.91,
"latitude":47.8984,
"longitude":7.60804
},
{
"airport":"LFSB",
"a":5620,
"al":187,
"h":76.89,
"latitude":47.5879,
"longitude":7.51689
},
{
"airport":"LFSB",
"a":12800,
"al":187,
"h":154.86,
"latitude":47.6177,
"longitude":7.50985
},
{
"airport":"LFSC",
"a":7963,
"al":147,
"h":14.21,
"latitude":47.9114,
"longitude":7.39567
},
{
"airport":"LFGA",
"a":5280,
"al":98,
"h":10.93,
"latitude":48.1026,
"longitude":7.35693
},
{
"airport":"LFST",
"a":7860,
"al":144,
"h":228.63,
"latitude":48.5454,
"longitude":7.64043
},
{
"airport":"EDTL",
"a":9830,
"al":167,
"h":28.21,
"latitude":48.3574,
"longitude":7.81815
},
{
"airport":"LFQP",
"a":7822,
"al":0,
"h":57.28,
"latitude":48.7604,
"longitude":7.1869
},
{
"airport":"EDFH",
"a":12450,
"al":148,
"h":32.42,
"latitude":49.9314,
"longitude":7.24683
},
{
"airport":"EDDR",
"a":6570,
"al":144,
"h":267.42,
"latitude":49.215,
"longitude":7.12379
},
{
"airport":"EDRZ",
"a":8740,
"al":148,
"h":29.81,
"latitude":49.1981,
"longitude":7.39051
},
{
"airport":"ETAR",
"a":10470,
"al":131,
"h":262.31,
"latitude":49.4364,
"longitude":7.6225
},
{
"airport":"ETAR",
"a":9820,
"al":121,
"h":266.31,
"latitude":49.4376,
"longitude":7.61689
},
{
"airport":"EDDK",
"a":12500,
"al":187,
"h":137.53,
"latitude":50.8805,
"longitude":7.12904
},
{
"airport":"ETSB",
"a":10059,
"al":148,
"h":29.26,
"latitude":50.1617,
"longitude":7.05278
},
{
"airport":"EDLW",
"a":6560,
"al":144,
"h":60.49,
"latitude":51.5147,
"longitude":7.60189
},
{
"airport":"EDDG",
"a":7140,
"al":148,
"h":251.15,
"latitude":52.1378,
"longitude":7.70018
},
{
"airport":"ETNP",
"a":9890,
"al":95,
"h":186.44,
"latitude":52.352,
"longitude":7.54389
},
{
"airport":"ETNT",
"a":7972,
"al":98,
"h":77.81,
"latitude":53.5456,
"longitude":7.64947
},
{
"airport":"ETNJ",
"a":8126,
"al":98,
"h":101.65,
"latitude":53.5358,
"longitude":7.8703
},
{
"airport":"ENML",
"a":7280,
"al":141,
"h":70.94,
"latitude":62.7423,
"longitude":7.24665
},
{
"airport":"ENKB",
"a":7840,
"al":138,
"h":251.34,
"latitude":63.116,
"longitude":7.85167
},
{
"airport":"FOOG",
"a":8530,
"al":148,
"h":22.21,
"latitude":-0.72559,
"longitude":8.74875
},
{
"airport":"FGSL",
"a":9640,
"al":138,
"h":221.78,
"latitude":3.76514,
"longitude":8.71751
},
{
"airport":"DNCA",
"a":8010,
"al":141,
"h":26.78,
"latitude":4.96625,
"longitude":8.34234
},
{
"airport":"DNAI",
"a":11811,
"al":0,
"h":206.3,
"latitude":4.88672,
"longitude":8.10075
},
{
"airport":"DNMK",
"a":9790,
"al":151,
"h":231.92,
"latitude":7.71218,
"longitude":8.6245
},
{
"airport":"DNJO",
"a":9790,
"al":121,
"h":95.25,
"latitude":9.64106,
"longitude":8.85555
},
{
"airport":"DNKN",
"a":11200,
"al":207,
"h":60.99,
"latitude":12.0417,
"longitude":8.50667
},
{
"airport":"DNKN",
"a":8690,
"al":180,
"h":224.45,
"latitude":12.0546,
"longitude":8.53761
},
{
"airport":"DRZR",
"a":5960,
"al":95,
"h":52.56,
"latitude":13.7741,
"longitude":8.97706
},
{
"airport":"DAAP",
"a":9920,
"al":141,
"h":90.49,
"latitude":26.7237,
"longitude":8.60739
},
{
"airport":"DAAP",
"a":8590,
"al":194,
"h":219.02,
"latitude":26.7374,
"longitude":8.61563
},
{
"airport":"DA10",
"a":7800,
"al":194,
"h":274.98,
"latitude":26.5728,
"longitude":8.49535
},
{
"airport":"DTTZ",
"a":10550,
"al":148,
"h":270.1,
"latitude":33.9396,
"longitude":8.11846
},
{
"airport":"DABS",
"a":10470,
"al":174,
"h":112.82,
"latitude":35.4388,
"longitude":8.10761
},
{
"airport":"DABS",
"a":7830,
"al":82,
"h":121.81,
"latitude":35.4356,
"longitude":8.10986
},
{
"airport":"DTKA",
"a":9370,
"al":148,
"h":93.08,
"latitude":36.9809,
"longitude":8.85903
},
{
"airport":"LIED",
"a":8810,
"al":144,
"h":167.05,
"latitude":39.3657,
"longitude":8.97026
},
{
"airport":"LIED",
"a":9060,
"al":98,
"h":166.98,
"latitude":39.3654,
"longitude":8.96783
},
{
"airport":"LIEA",
"a":9850,
"al":144,
"h":204.52,
"latitude":40.6444,
"longitude":8.29815
},
{
"airport":"LFKJ",
"a":7380,
"al":148,
"h":24.9,
"latitude":41.9119,
"longitude":8.79498
},
{
"airport":"LFKC",
"a":7580,
"al":128,
"h":359.82,
"latitude":42.5204,
"longitude":8.79302
},
{
"airport":"LIMJ",
"a":9580,
"al":144,
"h":105.33,
"latitude":44.4154,
"longitude":8.82412
},
{
"airport":"LIMC",
"a":12600,
"al":180,
"h":349.04,
"latitude":45.6115,
"longitude":8.72814
},
{
"airport":"LIMC",
"a":12840,
"al":200,
"h":349.04,
"latitude":45.6158,
"longitude":8.73752
},
{
"airport":"LIMN",
"a":9800,
"al":102,
"h":167.59,
"latitude":45.5442,
"longitude":8.66495
},
{
"airport":"LSMA",
"a":5430,
"al":131,
"h":191.75,
"latitude":46.9494,
"longitude":8.28585
},
{
"airport":"LSMM",
"a":6560,
"al":128,
"h":276.62,
"latitude":46.7413,
"longitude":8.12191
},
{
"airport":"LSZC",
"a":6560,
"al":128,
"h":244.31,
"latitude":46.9783,
"longitude":8.40883
},
{
"airport":"LSMC",
"a":6890,
"al":0,
"h":54,
"latitude":46.4956,
"longitude":8.28454
},
{
"airport":"LSMD",
"a":8790,
"al":121,
"h":107.81,
"latitude":47.4019,
"longitude":8.63238
},
{
"airport":"LSZH",
"a":8170,
"al":187,
"h":276.01,
"latitude":47.4566,
"longitude":8.57041
},
{
"airport":"LSZH",
"a":10810,
"al":200,
"h":317.33,
"latitude":47.4613,
"longitude":8.56439
},
{
"airport":"LSZH",
"a":12100,
"al":171,
"h":335.04,
"latitude":47.4456,
"longitude":8.55664
},
{
"airport":"LSME",
"a":8210,
"al":135,
"h":37.6,
"latitude":47.0835,
"longitude":8.29505
},
{
"airport":"EDSB",
"a":9840,
"al":148,
"h":211.67,
"latitude":48.7908,
"longitude":8.0912
},
{
"airport":"EDRY",
"a":5500,
"al":95,
"h":165.14,
"latitude":49.3094,
"longitude":8.44988
},
{
"airport":"EDGS",
"a":5330,
"al":95,
"h":308.1,
"latitude":50.7038,
"longitude":8.09073
},
{
"airport":"ETOU",
"a":7040,
"al":115,
"h":73.31,
"latitude":50.047,
"longitude":8.31107
},
{
"airport":"EDDF",
"a":13010,
"al":144,
"h":179.64,
"latitude":50.0341,
"longitude":8.52593
},
{
"airport":"EDDF",
"a":13120,
"al":194,
"h":249.62,
"latitude":50.0451,
"longitude":8.58702
},
{
"airport":"EDDF",
"a":13100,
"al":148,
"h":249.63,
"latitude":50.04,
"longitude":8.58649
},
{
"airport":"EDDF",
"a":9190,
"al":148,
"h":249.54,
"latitude":50.0458,
"longitude":8.53375
},
{
"airport":"EDLP",
"a":7150,
"al":148,
"h":56.73,
"latitude":51.6087,
"longitude":8.60314
},
{
"airport":"EDHA",
"a":6920,
"al":135,
"h":88.77,
"latitude":52.8887,
"longitude":8.21706
},
{
"airport":"EDDW",
"a":8630,
"al":148,
"h":267.85,
"latitude":53.0474,
"longitude":8.80934
},
{
"airport":"EDWD",
"a":6860,
"al":141,
"h":154.89,
"latitude":53.1518,
"longitude":8.61667
},
{
"airport":"ETMN",
"a":8005,
"al":148,
"h":78.51,
"latitude":53.7654,
"longitude":8.64039
},
{
"airport":"EDXW",
"a":5510,
"al":164,
"h":59.6,
"latitude":54.9094,
"longitude":8.32923
},
{
"airport":"EDXW",
"a":6950,
"al":131,
"h":144.43,
"latitude":54.9193,
"longitude":8.33284
},
{
"airport":"EDXK",
"a":9910,
"al":92,
"h":294.48,
"latitude":54.7876,
"longitude":8.96993
},
{
"airport":"EKEB",
"a":8510,
"al":138,
"h":79.45,
"latitude":55.5238,
"longitude":8.53347
},
{
"airport":"EKTS",
"a":5240,
"al":144,
"h":100.13,
"latitude":57.0701,
"longitude":8.69229
},
{
"airport":"ENCN",
"a":6660,
"al":141,
"h":34.91,
"latitude":58.1968,
"longitude":8.07549
},
{
"airport":"ENDI",
"a":5135,
"al":148,
"h":255.92,
"latitude":60.4184,
"longitude":8.52666
},
{
"airport":"FOOL",
"a":10020,
"al":131,
"h":334.19,
"latitude":0.44599,
"longitude":9.41838
},
{
"airport":"FGBT",
"a":10702,
"al":190,
"h":26.61,
"latitude":1.88919,
"longitude":9.79928
},
{
"airport":"FKKB",
"a":6010,
"al":141,
"h":23.91,
"latitude":2.86554,
"longitude":9.97316
},
{
"airport":"FKKD",
"a":9470,
"al":141,
"h":116.64,
"latitude":4.01182,
"longitude":9.70807
},
{
"airport":"DNBB",
"a":5570,
"al":75,
"h":279.1,
"latitude":6.62019,
"longitude":9.32662
},
{
"airport":"DNBC",
"a":11125,
"al":197,
"h":350.19,
"latitude":10.4678,
"longitude":9.74656
},
{
"airport":"DNDS",
"a":10276,
"al":0,
"h":238.56,
"latitude":11.8026,
"longitude":9.3134
},
{
"airport":"DAAJ",
"a":9830,
"al":141,
"h":125.16,
"latitude":24.2924,
"longitude":9.45292
},
{
"airport":"DAAJ",
"a":7850,
"al":144,
"h":201.18,
"latitude":24.294,
"longitude":9.45251
},
{
"airport":"DAUZ",
"a":9830,
"al":148,
"h":46.75,
"latitude":28.045,
"longitude":9.63506
},
{
"airport":"DAUZ",
"a":11010,
"al":125,
"h":145.36,
"latitude":28.0689,
"longitude":9.6292
},
{
"airport":"HLTD",
"a":6500,
"al":135,
"h":188.45,
"latitude":30.1542,
"longitude":9.71565
},
{
"airport":"HLTD",
"a":11770,
"al":141,
"h":242.32,
"latitude":30.1542,
"longitude":9.72068
},
{
"airport":"DTTR",
"a":8820,
"al":144,
"h":292.46,
"latitude":31.6994,
"longitude":9.2674
},
{
"airport":"DTTB",
"a":9800,
"al":161,
"h":262.03,
"latitude":37.244,
"longitude":9.80326
},
{
"airport":"LIEE",
"a":9190,
"al":148,
"h":138.08,
"latitude":39.2608,
"longitude":9.04345
},
{
"airport":"LIEO",
"a":8010,
"al":144,
"h":235.3,
"latitude":40.9049,
"longitude":9.52956
},
{
"airport":"LFKF",
"a":8110,
"al":131,
"h":47.36,
"latitude":41.4947,
"longitude":9.08607
},
{
"airport":"LFKS",
"a":8615,
"al":148,
"h":178.88,
"latitude":41.9362,
"longitude":9.40503
},
{
"airport":"LFKB",
"a":8320,
"al":131,
"h":162.87,
"latitude":42.5636,
"longitude":9.47917
},
{
"airport":"LIMS",
"a":9420,
"al":151,
"h":118.89,
"latitude":44.9205,
"longitude":9.70664
},
{
"airport":"LIML",
"a":8020,
"al":190,
"h":175.66,
"latitude":45.4562,
"longitude":9.27587
},
{
"airport":"LIME",
"a":9600,
"al":148,
"h":104.88,
"latitude":45.6711,
"longitude":9.68911
},
{
"airport":"LSZS",
"a":6020,
"al":135,
"h":29.17,
"latitude":46.5271,
"longitude":9.87818
},
{
"airport":"LSMF",
"a":6330,
"al":125,
"h":193.04,
"latitude":47.087,
"longitude":9.06779
},
{
"airport":"EDNY",
"a":7710,
"al":141,
"h":240.12,
"latitude":47.6766,
"longitude":9.52508
},
{
"airport":"LSZR",
"a":5100,
"al":92,
"h":98.86,
"latitude":47.4862,
"longitude":9.55024
},
{
"airport":"EDTM",
"a":5140,
"al":92,
"h":76.56,
"latitude":48.0521,
"longitude":9.36177
},
{
"airport":"ETHL",
"a":5350,
"al":95,
"h":92.86,
"latitude":48.2205,
"longitude":9.89922
},
{
"airport":"EDDS",
"a":10768,
"al":148,
"h":74,
"latitude":48.6856,
"longitude":9.19955
},
{
"airport":"EDQG",
"a":6510,
"al":98,
"h":77.95,
"latitude":49.6462,
"longitude":9.95245
},
{
"airport":"EDTY",
"a":5030,
"al":92,
"h":98.91,
"latitude":49.1194,
"longitude":9.77322
},
{
"airport":"ETEU",
"a":6990,
"al":0,
"h":77.98,
"latitude":49.6469,
"longitude":9.95296
},
{
"airport":"EDVK",
"a":8200,
"al":148,
"h":275.04,
"latitude":51.4198,
"longitude":9.41007
},
{
"airport":"ETHB",
"a":5970,
"al":141,
"h":77.52,
"latitude":52.2767,
"longitude":9.06912
},
{
"airport":"EDDV",
"a":10490,
"al":141,
"h":92.57,
"latitude":52.4682,
"longitude":9.65266
},
{
"airport":"EDDV",
"a":7680,
"al":138,
"h":92.6,
"latitude":52.455,
"longitude":9.67669
},
{
"airport":"ETNW",
"a":5530,
"al":148,
"h":206.65,
"latitude":52.4586,
"longitude":9.4383
},
{
"airport":"ETNW",
"a":8190,
"al":141,
"h":261.61,
"latitude":52.4593,
"longitude":9.44903
},
{
"airport":"EDDH",
"a":10670,
"al":144,
"h":50.19,
"latitude":53.6182,
"longitude":9.96366
},
{
"airport":"EDDH",
"a":12030,
"al":141,
"h":152.87,
"latitude":53.6544,
"longitude":9.97519
},
{
"airport":"EDHI",
"a":10730,
"al":131,
"h":51.57,
"latitude":53.5249,
"longitude":9.81345
},
{
"airport":"EKSB",
"a":5880,
"al":95,
"h":319.41,
"latitude":54.9567,
"longitude":9.80316
},
{
"airport":"EDXJ",
"a":10050,
"al":89,
"h":33.5,
"latitude":54.5046,
"longitude":9.13209
},
{
"airport":"ETME",
"a":7990,
"al":98,
"h":9.23,
"latitude":54.614,
"longitude":9.34289
},
{
"airport":"EDXF",
"a":5160,
"al":89,
"h":108.14,
"latitude":54.7742,
"longitude":9.36658
},
{
"airport":"ETNH",
"a":9764,
"al":98,
"h":79.42,
"latitude":54.3097,
"longitude":9.51564
},
{
"airport":"ETNS",
"a":8691,
"al":98,
"h":47.67,
"latitude":54.4503,
"longitude":9.49932
},
{
"airport":"EKBI",
"a":10170,
"al":125,
"h":86.82,
"latitude":55.7397,
"longitude":9.13235
},
{
"airport":"EKVA",
"a":8820,
"al":164,
"h":92.62,
"latitude":55.6987,
"longitude":9.17012
},
{
"airport":"EKSP",
"a":9770,
"al":72,
"h":285.46,
"latitude":55.2156,
"longitude":9.28843
},
{
"airport":"EKSP",
"a":9880,
"al":141,
"h":285.47,
"latitude":55.2174,
"longitude":9.28958
},
{
"airport":"EKKA",
"a":10850,
"al":69,
"h":89.29,
"latitude":56.299,
"longitude":9.07473
},
{
"airport":"EKKA",
"a":11100,
"al":138,
"h":89.31,
"latitude":56.2971,
"longitude":9.0736
},
{
"airport":"EKYT",
"a":9350,
"al":69,
"h":263.25,
"latitude":57.0948,
"longitude":9.87974
},
{
"airport":"EKYT",
"a":10320,
"al":128,
"h":263.26,
"latitude":57.0968,
"longitude":9.88051
},
{
"airport":"ENFG",
"a":6490,
"al":141,
"h":329.58,
"latitude":61.0039,
"longitude":9.30221
},
{
"airport":"ENOL",
"a":9780,
"al":144,
"h":153.99,
"latitude":63.7109,
"longitude":9.59078
},
{
"airport":"ENOL",
"a":7770,
"al":69,
"h":154.04,
"latitude":63.709,
"longitude":9.59784
},
{
"airport":"FOOH",
"a":5246,
"al":82,
"h":135.03,
"latitude":-1.56931,
"longitude":9.25745
},
{
"airport":"FOGR",
"a":5920,
"al":82,
"h":221.96,
"latitude":-0.69946,
"longitude":10.2497
},
{
"airport":"FKKM",
"a":6840,
"al":138,
"h":217.47,
"latitude":5.64427,
"longitude":10.7564
},
{
"airport":"FKKU",
"a":8200,
"al":148,
"h":327.33,
"latitude":5.5275,
"longitude":10.3607
},
{
"airport":"FKKV",
"a":8190,
"al":138,
"h":351.3,
"latitude":6.02815,
"longitude":10.1243
},
{
"airport":"HLGT",
"a":6960,
"al":82,
"h":60.91,
"latitude":25.1434,
"longitude":10.1382
},
{
"airport":"HLGT",
"a":12150,
"al":121,
"h":171.54,
"latitude":25.1523,
"longitude":10.144
},
{
"airport":"DTTD",
"a":7890,
"al":141,
"h":203.64,
"latitude":32.316,
"longitude":10.387
},
{
"airport":"DTTJ",
"a":10150,
"al":138,
"h":88.21,
"latitude":33.875,
"longitude":10.7604
},
{
"airport":"DTTX",
"a":8860,
"al":144,
"h":148.15,
"latitude":34.7267,
"longitude":10.6839
},
{
"airport":"DTMB",
"a":9710,
"al":148,
"h":73.54,
"latitude":35.7541,
"longitude":10.7383
},
{
"airport":"DTTA",
"a":10500,
"al":138,
"h":12.26,
"latitude":36.8391,
"longitude":10.2238
},
{
"airport":"DTTA",
"a":9340,
"al":148,
"h":112.52,
"latitude":36.8542,
"longitude":10.2177
},
{
"airport":"Z28S",
"a":6120,
"al":0,
"h":155.31,
"latitude":36.4396,
"longitude":10.0112
},
{
"airport":"LIRP",
"a":9190,
"al":144,
"h":36.71,
"latitude":43.6738,
"longitude":10.3807
},
{
"airport":"LIRP",
"a":10020,
"al":148,
"h":36.72,
"latitude":43.6726,
"longitude":10.3828
},
{
"airport":"LIMP",
"a":7913,
"al":49,
"h":17.36,
"latitude":44.8156,
"longitude":10.2922
},
{
"airport":"LIPL",
"a":9800,
"al":157,
"h":134.91,
"latitude":45.4416,
"longitude":10.2541
},
{
"airport":"LIPO",
"a":9800,
"al":144,
"h":315.04,
"latitude":45.4191,
"longitude":10.3448
},
{
"airport":"LIPX",
"a":10060,
"al":131,
"h":225.56,
"latitude":45.4066,
"longitude":10.9044
},
{
"airport":"EDJA",
"a":9680,
"al":92,
"h":59.28,
"latitude":47.982,
"longitude":10.2225
},
{
"airport":"EDMA",
"a":5220,
"al":95,
"h":251.41,
"latitude":48.4275,
"longitude":10.9421
},
{
"airport":"ETSA",
"a":6760,
"al":98,
"h":252.05,
"latitude":48.0734,
"longitude":10.9192
},
{
"airport":"ETSL",
"a":8760,
"al":85,
"h":28.89,
"latitude":48.1758,
"longitude":10.8532
},
{
"airport":"Z11L",
"a":6562,
"al":0,
"h":67.2,
"latitude":48.4348,
"longitude":10.225
},
{
"airport":"EDDE",
"a":8520,
"al":151,
"h":277.24,
"latitude":50.9783,
"longitude":10.9765
},
{
"airport":"EDGE",
"a":5630,
"al":194,
"h":104.61,
"latitude":50.9941,
"longitude":10.4643
},
{
"airport":"EDVE",
"a":7530,
"al":141,
"h":264.79,
"latitude":52.3203,
"longitude":10.5757
},
{
"airport":"ETHC",
"a":6942,
"al":0,
"h":260.74,
"latitude":52.593,
"longitude":10.0398
},
{
"airport":"ETHS",
"a":9836,
"al":0,
"h":87.66,
"latitude":52.9188,
"longitude":10.1615
},
{
"airport":"EDHL",
"a":6900,
"al":203,
"h":72,
"latitude":53.8019,
"longitude":10.7015
},
{
"airport":"EKOD",
"a":6530,
"al":144,
"h":59.69,
"latitude":55.4708,
"longitude":10.3133
},
{
"airport":"EKAH",
"a":9080,
"al":72,
"h":100.33,
"latitude":56.3075,
"longitude":10.5979
},
{
"airport":"EKAH",
"a":10500,
"al":144,
"h":100.26,
"latitude":56.306,
"longitude":10.593
},
{
"airport":"ENTO",
"a":8870,
"al":135,
"h":179.32,
"latitude":59.1989,
"longitude":10.2583
},
{
"airport":"ENRY",
"a":8000,
"al":144,
"h":296.91,
"latitude":59.3738,
"longitude":10.8046
},
{
"airport":"ENEG",
"a":6860,
"al":151,
"h":40.52,
"latitude":60.2074,
"longitude":10.3061
},
{
"airport":"ENVA",
"a":9340,
"al":138,
"h":270.3,
"latitude":63.4575,
"longitude":10.9466
},
{
"airport":"FOGF",
"a":5170,
"al":115,
"h":182.44,
"latitude":-1.27061,
"longitude":10.613
},
{
"airport":"FOOT",
"a":6510,
"al":82,
"h":145.42,
"latitude":-2.88162,
"longitude":10.9509
},
{
"airport":"FOOY",
"a":5360,
"al":82,
"h":302.32,
"latitude":-3.46229,
"longitude":10.6828
},
{
"airport":"FOGO",
"a":5890,
"al":82,
"h":204.4,
"latitude":1.5505,
"longitude":11.5847
},
{
"airport":"FGMY",
"a":9816,
"al":0,
"h":176.84,
"latitude":1.6903,
"longitude":11.0241
},
{
"airport":"FOOB",
"a":6000,
"al":82,
"h":122.7,
"latitude":2.08155,
"longitude":11.4852
},
{
"airport":"FKKY",
"a":6520,
"al":128,
"h":24.07,
"latitude":3.82794,
"longitude":11.5198
},
{
"airport":"FKYS",
"a":11160,
"al":141,
"h":9.89,
"latitude":3.70751,
"longitude":11.5507
},
{
"airport":"DNJA",
"a":7860,
"al":75,
"h":250.59,
"latitude":8.90557,
"longitude":11.2937
},
{
"airport":"HL77",
"a":10510,
"al":92,
"h":97.07,
"latitude":32.4762,
"longitude":11.8811
},
{
"airport":"HL77",
"a":12460,
"al":144,
"h":97.12,
"latitude":32.474,
"longitude":11.8776
},
{
"airport":"LIRS",
"a":9810,
"al":157,
"h":30.84,
"latitude":42.7493,
"longitude":11.0612
},
{
"airport":"LIRS",
"a":7740,
"al":82,
"h":30.85,
"latitude":42.7507,
"longitude":11.0655
},
{
"airport":"LIRQ",
"a":5390,
"al":98,
"h":228.16,
"latitude":43.8147,
"longitude":11.2123
},
{
"airport":"LIPE",
"a":9430,
"al":148,
"h":116.74,
"latitude":44.5416,
"longitude":11.2717
},
{
"airport":"LIPB",
"a":5050,
"al":102,
"h":10.14,
"latitude":46.4533,
"longitude":11.3246
},
{
"airport":"LOWI",
"a":6550,
"al":144,
"h":260.99,
"latitude":47.2616,
"longitude":11.357
},
{
"airport":"EDDM",
"a":13100,
"al":187,
"h":83.39,
"latitude":48.3628,
"longitude":11.7676
},
{
"airport":"EDDM",
"a":13100,
"al":184,
"h":83.38,
"latitude":48.3407,
"longitude":11.751
},
{
"airport":"EDMO",
"a":7470,
"al":138,
"h":222.38,
"latitude":48.0892,
"longitude":11.2937
},
{
"airport":"ETSF",
"a":10220,
"al":141,
"h":272.59,
"latitude":48.205,
"longitude":11.2866
},
{
"airport":"ETSI",
"a":8002,
"al":98,
"h":248.24,
"latitude":48.7248,
"longitude":11.5462
},
{
"airport":"ETSN",
"a":8150,
"al":98,
"h":90.48,
"latitude":48.7111,
"longitude":11.1949
},
{
"airport":"ETSE",
"a":8259,
"al":98,
"h":78.54,
"latitude":48.3202,
"longitude":11.932
},
{
"airport":"EDDN",
"a":8850,
"al":148,
"h":98.59,
"latitude":49.5005,
"longitude":11.0592
},
{
"airport":"EDBC",
"a":8190,
"al":135,
"h":257.39,
"latitude":51.8584,
"longitude":11.4357
},
{
"airport":"EDOP",
"a":9840,
"al":184,
"h":64.95,
"latitude":53.4213,
"longitude":11.763
},
{
"airport":"ESGP",
"a":6290,
"al":144,
"h":4.89,
"latitude":57.7664,
"longitude":11.8689
},
{
"airport":"ENKJ",
"a":5330,
"al":95,
"h":122.73,
"latitude":59.9734,
"longitude":11.027
},
{
"airport":"ENGM",
"a":11810,
"al":148,
"h":15.98,
"latitude":60.185,
"longitude":11.0738
},
{
"airport":"ENGM",
"a":9670,
"al":144,
"h":16.01,
"latitude":60.1758,
"longitude":11.1078
},
{
"airport":"ENRO",
"a":5650,
"al":131,
"h":316.16,
"latitude":62.5736,
"longitude":11.3563
},
{
"airport":"FOGM",
"a":5900,
"al":82,
"h":167.52,
"latitude":-1.83709,
"longitude":11.0548
},
{
"airport":"FCPP",
"a":8560,
"al":141,
"h":166.09,
"latitude":-4.80467,
"longitude":11.8838
},
{
"airport":"FOOK",
"a":6191,
"al":0,
"h":58.53,
"latitude":0.57479,
"longitude":12.8837
},
{
"airport":"FOOR",
"a":5659,
"al":0,
"h":243.34,
"latitude":-0.82189,
"longitude":12.7546
},
{
"airport":"DNYO",
"a":5900,
"al":82,
"h":125.42,
"latitude":9.27484,
"longitude":12.425
},
{
"airport":"DNYO",
"a":9800,
"al":144,
"h":170.54,
"latitude":9.27093,
"longitude":12.4282
},
{
"airport":"DRZF",
"a":6220,
"al":82,
"h":88.4,
"latitude":13.3728,
"longitude":12.6174
},
{
"airport":"DRZD",
"a":5280,
"al":82,
"h":221.49,
"latitude":18.9741,
"longitude":12.8736
},
{
"airport":"HL51",
"a":9349,
"al":0,
"h":97.5,
"latitude":26.5692,
"longitude":12.8089
},
{
"airport":"HL81",
"a":7740,
"al":95,
"h":268.96,
"latitude":29.5314,
"longitude":12.956
},
{
"airport":"HLNM",
"a":6562,
"al":0,
"h":180.8,
"latitude":29.5223,
"longitude":12.9451
},
{
"airport":"HL78",
"a":7746,
"al":0,
"h":167.81,
"latitude":30.7119,
"longitude":12.4813
},
{
"airport":"HLZN",
"a":6620,
"al":138,
"h":199.52,
"latitude":31.7835,
"longitude":12.2536
},
{
"airport":"HLZW",
"a":5890,
"al":135,
"h":239.44,
"latitude":32.9567,
"longitude":12.0235
},
{
"airport":"LICD",
"a":5890,
"al":148,
"h":80.53,
"latitude":35.4966,
"longitude":12.6083
},
{
"airport":"LICT",
"a":8850,
"al":141,
"h":307.86,
"latitude":37.904,
"longitude":12.5001
},
{
"airport":"LICT",
"a":7970,
"al":95,
"h":307.88,
"latitude":37.907,
"longitude":12.4993
},
{
"airport":"LIRA",
"a":7250,
"al":148,
"h":152.92,
"latitude":41.8081,
"longitude":12.5889
},
{
"airport":"LIRE",
"a":8010,
"al":89,
"h":130.05,
"latitude":41.6623,
"longitude":12.4349
},
{
"airport":"LIRE",
"a":9520,
"al":157,
"h":130.06,
"latitude":41.6619,
"longitude":12.4314
},
{
"airport":"LIRF",
"a":10430,
"al":148,
"h":249.69,
"latitude":41.8096,
"longitude":12.2694
},
{
"airport":"LIRF",
"a":12760,
"al":194,
"h":162.68,
"latitude":41.8459,
"longitude":12.2615
},
{
"airport":"LIRF",
"a":12800,
"al":194,
"h":162.68,
"latitude":41.8155,
"longitude":12.2264
},
{
"airport":"LIRL",
"a":5660,
"al":128,
"h":304.55,
"latitude":41.538,
"longitude":12.9177
},
{
"airport":"LIRZ",
"a":7220,
"al":144,
"h":14.3,
"latitude":43.0885,
"longitude":12.5107
},
{
"airport":"LIPK",
"a":8380,
"al":148,
"h":296.99,
"latitude":44.1897,
"longitude":12.0848
},
{
"airport":"LIPC",
"a":10000,
"al":138,
"h":116.33,
"latitude":44.2304,
"longitude":12.2901
},
{
"airport":"LIPR",
"a":9710,
"al":144,
"h":307.8,
"latitude":44.0122,
"longitude":12.6262
},
{
"airport":"LIPS",
"a":9790,
"al":115,
"h":81.97,
"latitude":45.6826,
"longitude":12.0683
},
{
"airport":"LIPH",
"a":8040,
"al":144,
"h":69.2,
"latitude":45.6446,
"longitude":12.1792
},
{
"airport":"LIPZ",
"a":10870,
"al":144,
"h":222.03,
"latitude":45.5161,
"longitude":12.366
},
{
"airport":"LIPZ",
"a":9100,
"al":138,
"h":222.05,
"latitude":45.5137,
"longitude":12.3594
},
{
"airport":"LIPA",
"a":8530,
"al":141,
"h":47.64,
"latitude":46.0232,
"longitude":12.584
},
{
"airport":"LOWS",
"a":9010,
"al":135,
"h":156.99,
"latitude":47.8048,
"longitude":12.9967
},
{
"airport":"EDAC",
"a":7980,
"al":135,
"h":39.36,
"latitude":50.9742,
"longitude":12.4965
},
{
"airport":"LKKV",
"a":7060,
"al":89,
"h":113.15,
"latitude":50.2069,
"longitude":12.9013
},
{
"airport":"EDUZ",
"a":8090,
"al":180,
"h":64.46,
"latitude":51.9949,
"longitude":12.1281
},
{
"airport":"EDDP",
"a":11810,
"al":148,
"h":85.69,
"latitude":51.4312,
"longitude":12.2158
},
{
"airport":"EDDP",
"a":11810,
"al":194,
"h":85.7,
"latitude":51.4116,
"longitude":12.2046
},
{
"airport":"Z11K",
"a":8424,
"al":0,
"h":96,
"latitude":51.9968,
"longitude":12.9643
},
{
"airport":"ETNL",
"a":10240,
"al":0,
"h":277.72,
"latitude":53.9162,
"longitude":12.3028
},
{
"airport":"EDAX",
"a":7793,
"al":0,
"h":75.99,
"latitude":53.3029,
"longitude":12.737
},
{
"airport":"EDAX",
"a":7808,
"al":164,
"h":76,
"latitude":53.3036,
"longitude":12.7359
},
{
"airport":"EKRK",
"a":5880,
"al":98,
"h":296.6,
"latitude":55.5828,
"longitude":12.1412
},
{
"airport":"EKCH",
"a":10070,
"al":144,
"h":123.13,
"latitude":55.6276,
"longitude":12.6297
},
{
"airport":"EKCH",
"a":11650,
"al":144,
"h":41.11,
"latitude":55.5922,
"longitude":12.6036
},
{
"airport":"EKCH",
"a":10840,
"al":144,
"h":41.14,
"latitude":55.6031,
"longitude":12.6331
},
{
"airport":"EKVL",
"a":8042,
"al":0,
"h":99.83,
"latitude":55.7711,
"longitude":12.3048
},
{
"airport":"ESMT",
"a":7410,
"al":125,
"h":186.19,
"latitude":56.7012,
"longitude":12.8222
},
{
"airport":"ESTA",
"a":6370,
"al":141,
"h":316.5,
"latitude":56.2852,
"longitude":12.8659
},
{
"airport":"ESGG",
"a":10790,
"al":148,
"h":206.09,
"latitude":57.6761,
"longitude":12.2919
},
{
"airport":"ESIB",
"a":6320,
"al":121,
"h":111.96,
"latitude":58.4331,
"longitude":12.6947
},
{
"airport":"ESGT",
"a":5590,
"al":92,
"h":326.12,
"latitude":58.3115,
"longitude":12.3528
},
{
"airport":"ESST",
"a":5170,
"al":92,
"h":337.61,
"latitude":60.1508,
"longitude":12.9968
},
{
"airport":"FNCA",
"a":8220,
"al":98,
"h":179.02,
"latitude":-5.58586,
"longitude":12.188
},
{
"airport":"FZAI",
"a":7850,
"al":148,
"h":45.06,
"latitude":-5.92641,
"longitude":12.4383
},
{
"airport":"FNSO",
"a":7020,
"al":118,
"h":235.09,
"latitude":-6.13564,
"longitude":12.3797
},
{
"airport":"FCPL",
"a":6677,
"al":0,
"h":134.41,
"latitude":-4.19974,
"longitude":12.6533
},
{
"airport":"FOGK",
"a":6250,
"al":148,
"h":150.48,
"latitude":-1.17716,
"longitude":12.4367
},
{
"airport":"FO23",
"a":5841,
"al":0,
"h":150.91,
"latitude":-1.17855,
"longitude":12.4381
},
{
"airport":"FKKO",
"a":6102,
"al":0,
"h":166.89,
"latitude":4.55807,
"longitude":13.724
},
{
"airport":"FKKN",
"a":8590,
"al":141,
"h":202.17,
"latitude":7.3679,
"longitude":13.5637
},
{
"airport":"FKKR",
"a":11170,
"al":138,
"h":86.41,
"latitude":9.33502,
"longitude":13.3545
},
{
"airport":"DNMA",
"a":9830,
"al":190,
"h":46.52,
"latitude":11.846,
"longitude":13.0713
},
{
"airport":"HL54",
"a":5900,
"al":141,
"h":183.27,
"latitude":31.7468,
"longitude":13.9544
},
{
"airport":"HLLM",
"a":11020,
"al":141,
"h":105.3,
"latitude":32.8958,
"longitude":13.2703
},
{
"airport":"HLLT",
"a":11780,
"al":138,
"h":88.98,
"latitude":32.6631,
"longitude":13.1289
},
{
"airport":"HLLT",
"a":8610,
"al":138,
"h":177.1,
"latitude":32.6797,
"longitude":13.1582
},
{
"airport":"LICJ",
"a":6800,
"al":141,
"h":23.81,
"latitude":38.1663,
"longitude":13.0857
},
{
"airport":"LICJ",
"a":10900,
"al":194,
"h":66.9,
"latitude":38.1743,
"longitude":13.0866
},
{
"airport":"LIPY",
"a":9710,
"al":138,
"h":44.8,
"latitude":43.6069,
"longitude":13.3494
},
{
"airport":"LDPL",
"a":9650,
"al":125,
"h":268.24,
"latitude":44.8939,
"longitude":13.9408
},
{
"airport":"LIPI",
"a":9800,
"al":141,
"h":59.09,
"latitude":45.9726,
"longitude":13.0327
},
{
"airport":"LIPQ",
"a":9830,
"al":148,
"h":270.5,
"latitude":45.8278,
"longitude":13.486
},
{
"airport":"LKPC",
"a":8210,
"al":92,
"h":85.69,
"latitude":50.3054,
"longitude":13.9173
},
{
"airport":"EDAK",
"a":7850,
"al":154,
"h":295.12,
"latitude":51.3034,
"longitude":13.5709
},
{
"airport":"EDDC",
"a":9310,
"al":194,
"h":40.83,
"latitude":51.1247,
"longitude":13.7547
},
{
"airport":"ETSH",
"a":7936,
"al":98,
"h":93.37,
"latitude":51.7685,
"longitude":13.1501
},
{
"airport":"EDDB",
"a":11800,
"al":138,
"h":68.75,
"latitude":52.3667,
"longitude":13.4809
},
{
"airport":"EDDT",
"a":9910,
"al":141,
"h":80.83,
"latitude":52.5576,
"longitude":13.2657
},
{
"airport":"EDDT",
"a":7880,
"al":148,
"h":80.84,
"latitude":52.5567,
"longitude":13.275
},
{
"airport":"EDDI",
"a":6864,
"al":140,
"h":85.87,
"latitude":52.4743,
"longitude":13.3871
},
{
"airport":"EDDI",
"a":6025,
"al":140,
"h":87.73,
"latitude":52.4707,
"longitude":13.3915
},
{
"airport":"Z11R",
"a":8200,
"al":0,
"h":160.11,
"latitude":52.7383,
"longitude":13.2116
},
{
"airport":"EDBN",
"a":7510,
"al":0,
"h":268.21,
"latitude":53.6026,
"longitude":13.3234
},
{
"airport":"ETNU",
"a":7480,
"al":0,
"h":88.14,
"latitude":53.6018,
"longitude":13.2888
},
{
"airport":"EDCP",
"a":8170,
"al":148,
"h":316.19,
"latitude":54.1503,
"longitude":13.7871
},
{
"airport":"ESMS",
"a":9140,
"al":141,
"h":173.38,
"latitude":55.548,
"longitude":13.3738
},
{
"airport":"ESFJ",
"a":6562,
"al":0,
"h":120,
"latitude":55.6536,
"longitude":13.6121
},
{
"airport":"ESTL",
"a":6560,
"al":128,
"h":113.08,
"latitude":56.0885,
"longitude":13.1925
},
{
"airport":"ESTL",
"a":6530,
"al":125,
"h":113.92,
"latitude":56.0866,
"longitude":13.1812
},
{
"airport":"ESFY",
"a":7546,
"al":0,
"h":120,
"latitude":56.7885,
"longitude":13.585
},
{
"airport":"ESFR",
"a":6550,
"al":112,
"h":184.63,
"latitude":58.5071,
"longitude":13.0546
},
{
"airport":"ESGL",
"a":6520,
"al":135,
"h":62.11,
"latitude":58.4614,
"longitude":13.1593
},
{
"airport":"ESGR",
"a":5670,
"al":98,
"h":15.66,
"latitude":58.4489,
"longitude":13.9687
},
{
"airport":"ESFH",
"a":6509,
"al":0,
"h":28.9,
"latitude":58.4016,
"longitude":13.2544
},
{
"airport":"ESOK",
"a":8210,
"al":135,
"h":25.63,
"latitude":59.4346,
"longitude":13.3278
},
{
"airport":"FOON",
"a":10280,
"al":141,
"h":323.72,
"latitude":-1.66767,
"longitude":13.4464
},
{
"airport":"FOOD",
"a":6220,
"al":0,
"h":114.14,
"latitude":-1.52296,
"longitude":13.2434
},
{
"airport":"FO22",
"a":6890,
"al":0,
"h":61.6,
"latitude":-1.13392,
"longitude":13.9122
},
{
"airport":"FCBY",
"a":7240,
"al":108,
"h":89.93,
"latitude":-4.22274,
"longitude":13.2774
},
{
"airport":"FNAM",
"a":7680,
"al":82,
"h":155.88,
"latitude":-7.85341,
"longitude":13.1117
},
{
"airport":"FNLU",
"a":12160,
"al":135,
"h":226.63,
"latitude":-8.85396,
"longitude":13.2383
},
{
"airport":"FNLU",
"a":8170,
"al":138,
"h":247.52,
"latitude":-8.84694,
"longitude":13.2465
},
{
"airport":"FN19",
"a":9790,
"al":141,
"h":72.67,
"latitude":-9.657,
"longitude":13.2477
},
{
"airport":"FNBG",
"a":5250,
"al":92,
"h":130.39,
"latitude":-12.6043,
"longitude":13.3979
},
{
"airport":"FNCT",
"a":12120,
"al":138,
"h":190.26,
"latitude":-12.4632,
"longitude":13.4902
},
{
"airport":"FNUB",
"a":10480,
"al":141,
"h":88.18,
"latitude":-14.9251,
"longitude":13.5615
},
{
"airport":"FYOP",
"a":7650,
"al":52,
"h":15.76,
"latitude":-18.0652,
"longitude":13.8493
},
{
"airport":"FCBS",
"a":6644,
"al":0,
"h":91.76,
"latitude":-3.68631,
"longitude":13.3655
},
{
"airport":"FCOE",
"a":6780,
"al":92,
"h":136.01,
"latitude":-0.85124,
"longitude":14.7979
},
{
"airport":"FKKI",
"a":5160,
"al":102,
"h":20.37,
"latitude":4.47033,
"longitude":14.3604
},
{
"airport":"FTTP",
"a":5540,
"al":210,
"h":226.6,
"latitude":9.38476,
"longitude":14.9311
},
{
"airport":"FKKL",
"a":6890,
"al":148,
"h":129.84,
"latitude":10.4574,
"longitude":14.2499
},
{
"airport":"Z23L",
"a":9560,
"al":0,
"h":177.11,
"latitude":22.7967,
"longitude":14.0235
},
{
"airport":"HL57",
"a":13920,
"al":190,
"h":130.14,
"latitude":24.1899,
"longitude":14.5278
},
{
"airport":"HL57",
"a":5790,
"al":121,
"h":239.83,
"latitude":24.1878,
"longitude":14.5364
},
{
"airport":"HLLS",
"a":5590,
"al":82,
"h":241.03,
"latitude":26.9884,
"longitude":14.4753
},
{
"airport":"HL66",
"a":11110,
"al":138,
"h":132.27,
"latitude":27.2502,
"longitude":14.6438
},
{
"airport":"HLLS",
"a":11780,
"al":121,
"h":132.79,
"latitude":27.0045,
"longitude":14.4514
},
{
"airport":"HLLS",
"a":11200,
"al":82,
"h":132.76,
"latitude":27.0057,
"longitude":14.453
},
{
"airport":"HL73",
"a":11806,
"al":0,
"h":130.11,
"latitude":27.6628,
"longitude":14.259
},
{
"airport":"HL83",
"a":12750,
"al":161,
"h":124.47,
"latitude":31.715,
"longitude":14.8947
},
{
"airport":"LMML",
"a":11600,
"al":184,
"h":134.86,
"latitude":35.8564,
"longitude":14.4789
},
{
"airport":"LMML",
"a":7990,
"al":144,
"h":234.43,
"latitude":35.8601,
"longitude":14.4818
},
{
"airport":"LICB",
"a":8320,
"al":144,
"h":50.07,
"latitude":36.9878,
"longitude":14.5969
},
{
"airport":"LICZ",
"a":7870,
"al":89,
"h":98.41,
"latitude":37.4051,
"longitude":14.909
},
{
"airport":"LICZ",
"a":8050,
"al":141,
"h":98.39,
"latitude":37.4032,
"longitude":14.9086
},
{
"airport":"LIRN",
"a":8610,
"al":148,
"h":58.03,
"latitude":40.8798,
"longitude":14.2775
},
{
"airport":"LIRI",
"a":5400,
"al":135,
"h":232.22,
"latitude":40.6231,
"longitude":14.918
},
{
"airport":"LIRM",
"a":9790,
"al":95,
"h":60.33,
"latitude":41.0532,
"longitude":14.066
},
{
"airport":"LIBP",
"a":7920,
"al":135,
"h":217.43,
"latitude":42.4398,
"longitude":14.1919
},
{
"airport":"LDRG",
"a":5240,
"al":95,
"h":74.57,
"latitude":45.3776,
"longitude":14.4937
},
{
"airport":"LDRI",
"a":8190,
"al":138,
"h":143.82,
"latitude":45.2257,
"longitude":14.5614
},
{
"airport":"LOWK",
"a":8920,
"al":144,
"h":106.36,
"latitude":46.6459,
"longitude":14.3207
},
{
"airport":"LJLJ",
"a":10814,
"al":0,
"h":126.43,
"latitude":46.2325,
"longitude":14.4404
},
{
"airport":"LJLJ",
"a":10827,
"al":148,
"h":126,
"latitude":46.2325,
"longitude":14.4404
},
{
"airport":"LOXZ",
"a":9020,
"al":180,
"h":260.54,
"latitude":47.2044,
"longitude":14.7599
},
{
"airport":"LOWL",
"a":9830,
"al":194,
"h":86.98,
"latitude":48.2325,
"longitude":14.1673
},
{
"airport":"LKCS",
"a":8203,
"al":262,
"h":89.5,
"latitude":48.9463,
"longitude":14.4103
},
{
"airport":"LKPM",
"a":5520,
"al":125,
"h":55.57,
"latitude":49.7157,
"longitude":14.0891
},
{
"airport":"LKPM",
"a":6000,
"al":92,
"h":55.49,
"latitude":49.7148,
"longitude":14.0884
},
{
"airport":"LKVL",
"a":6670,
"al":295,
"h":306.91,
"latitude":49.7246,
"longitude":14.8868
},
{
"airport":"LKTV",
"a":6500,
"al":82,
"h":312.28,
"latitude":49.4323,
"longitude":14.6317
},
{
"airport":"LKKB",
"a":6550,
"al":161,
"h":62.29,
"latitude":50.1172,
"longitude":14.5312
},
{
"airport":"LKPR",
"a":12190,
"al":141,
"h":244.98,
"latitude":50.1159,
"longitude":14.2734
},
{
"airport":"LKVO",
"a":8190,
"al":131,
"h":284.96,
"latitude":50.2138,
"longitude":14.4125
},
{
"airport":"LKMH",
"a":5075,
"al":0,
"h":66.97,
"latitude":50.5359,
"longitude":14.9917
},
{
"airport":"LKHR",
"a":9186,
"al":0,
"h":97,
"latitude":50.6206,
"longitude":14.7159
},
{
"airport":"LKMH",
"a":5094,
"al":98,
"h":67,
"latitude":50.5374,
"longitude":14.9965
},
{
"airport":"EDBR",
"a":8160,
"al":135,
"h":358.49,
"latitude":51.3528,
"longitude":14.9515
},
{
"airport":"EDCD",
"a":8160,
"al":167,
"h":68.84,
"latitude":51.8855,
"longitude":14.5151
},
{
"airport":"EDCY",
"a":8180,
"al":253,
"h":216.26,
"latitude":51.5855,
"longitude":14.1489
},
{
"airport":"EDCY",
"a":6620,
"al":98,
"h":216.43,
"latitude":51.586,
"longitude":14.1476
},
{
"airport":"EDAB",
"a":7130,
"al":161,
"h":73.2,
"latitude":51.1907,
"longitude":14.5049
},
{
"airport":"ETHT",
"a":5143,
"al":0,
"h":77.98,
"latitude":51.7665,
"longitude":14.2808
},
{
"airport":"ETNR",
"a":8202,
"al":0,
"h":66.3,
"latitude":51.6591,
"longitude":14.617
},
{
"airport":"EDON",
"a":7860,
"al":131,
"h":264.38,
"latitude":52.614,
"longitude":14.2602
},
{
"airport":"EDAH",
"a":7510,
"al":112,
"h":105.61,
"latitude":53.8816,
"longitude":14.1346
},
{
"airport":"EPSC",
"a":8188,
"al":197,
"h":130.91,
"latitude":53.5921,
"longitude":14.8879
},
{
"airport":"ESMK",
"a":7340,
"al":138,
"h":187.02,
"latitude":55.9317,
"longitude":14.0877
},
{
"airport":"EKRN",
"a":6530,
"al":141,
"h":113.85,
"latitude":55.0669,
"longitude":14.7453
},
{
"airport":"ESMX",
"a":6870,
"al":141,
"h":13.15,
"latitude":56.92,
"longitude":14.7241
},
{
"airport":"ESFI",
"a":6890,
"al":0,
"h":150,
"latitude":56.1954,
"longitude":14.1279
},
{
"airport":"ESFU",
"a":7546,
"al":0,
"h":160,
"latitude":56.6911,
"longitude":14.9402
},
{
"airport":"ESGJ",
"a":7190,
"al":144,
"h":18.01,
"latitude":57.7483,
"longitude":14.063
},
{
"airport":"ESMV",
"a":6620,
"al":125,
"h":43.18,
"latitude":57.2859,
"longitude":14.1258
},
{
"airport":"ESIA",
"a":7640,
"al":128,
"h":62.76,
"latitude":58.5092,
"longitude":14.4896
},
{
"airport":"ESFM",
"a":6562,
"al":0,
"h":30,
"latitude":58.5907,
"longitude":14.1033
},
{
"airport":"ESKM",
"a":5910,
"al":121,
"h":161.23,
"latitude":60.9656,
"longitude":14.5059
},
{
"airport":"ESND",
"a":5540,
"al":92,
"h":86.95,
"latitude":62.0473,
"longitude":14.4049
},
{
"airport":"ESNZ",
"a":8400,
"al":148,
"h":114.74,
"latitude":63.1988,
"longitude":14.4794
},
{
"airport":"ESPC",
"a":8178,
"al":0,
"h":114.68,
"latitude":63.1988,
"longitude":14.4794
},
{
"airport":"ENBO",
"a":11160,
"al":141,
"h":77.75,
"latitude":67.2654,
"longitude":14.3202
},
{
"airport":"FN17",
"a":8410,
"al":92,
"h":275.04,
"latitude":-16.2394,
"longitude":14.3387
},
{
"airport":"FN17",
"a":8160,
"al":89,
"h":274.96,
"latitude":-16.2376,
"longitude":14.3389
},
{
"airport":"FNXA",
"a":7360,
"al":79,
"h":201.33,
"latitude":-16.746,
"longitude":14.9689
},
{
"airport":"FYRC",
"a":6970,
"al":98,
"h":89.91,
"latitude":-17.4206,
"longitude":14.3723
},
{
"airport":"FYKJ",
"a":6400,
"al":98,
"h":252.9,
"latitude":-19.5191,
"longitude":14.8291
},
{
"airport":"FYUS",
"a":6110,
"al":75,
"h":203.77,
"latitude":-21.2221,
"longitude":14.8706
},
{
"airport":"FYAR",
"a":6280,
"al":62,
"h":257.93,
"latitude":-22.46,
"longitude":14.9886
},
{
"airport":"FYSM",
"a":5010,
"al":89,
"h":45.67,
"latitude":-22.6642,
"longitude":14.5659
},
{
"airport":"FYWB",
"a":11260,
"al":184,
"h":251.89,
"latitude":-22.9746,
"longitude":14.663
},
{
"airport":"FCBD",
"a":8376,
"al":0,
"h":31.07,
"latitude":-2.5251,
"longitude":14.7496
},
{
"airport":"FNBC",
"a":6309,
"al":98,
"h":335.27,
"latitude":-6.27695,
"longitude":14.2503
},
{
"airport":"FCOM",
"a":5760,
"al":89,
"h":248.26,
"latitude":-0.0187,
"longitude":15.5829
},
{
"airport":"FCOO",
"a":5870,
"al":82,
"h":79.43,
"latitude":-0.53288,
"longitude":15.9424
},
{
"airport":"FCOO",
"a":6710,
"al":92,
"h":139.74,
"latitude":-0.51704,
"longitude":15.9315
},
{
"airport":"FEFO",
"a":6410,
"al":108,
"h":345.98,
"latitude":5.95041,
"longitude":15.6399
},
{
"airport":"FTTB",
"a":5150,
"al":66,
"h":87.56,
"latitude":10.2882,
"longitude":15.3735
},
{
"airport":"FKKJ",
"a":5262,
"al":0,
"h":118.05,
"latitude":10.353,
"longitude":15.2313
},
{
"airport":"FTTJ",
"a":9180,
"al":144,
"h":45.73,
"latitude":12.1249,
"longitude":15.0248
},
{
"airport":"FTTU",
"a":5680,
"al":69,
"h":254.93,
"latitude":14.1485,
"longitude":15.323
},
{
"airport":"HL69",
"a":12440,
"al":184,
"h":140.8,
"latitude":29.2112,
"longitude":15.9887
},
{
"airport":"HLON",
"a":5890,
"al":82,
"h":131.45,
"latitude":29.1154,
"longitude":15.9587
},
{
"airport":"HL76",
"a":11140,
"al":0,
"h":146.41,
"latitude":32.3381,
"longitude":15.0509
},
{
"airport":"LICC",
"a":8740,
"al":148,
"h":263.97,
"latitude":37.468,
"longitude":15.0811
},
{
"airport":"LICR",
"a":5730,
"al":138,
"h":112.64,
"latitude":38.0753,
"longitude":15.6391
},
{
"airport":"LICR",
"a":6550,
"al":148,
"h":152.9,
"latitude":38.0814,
"longitude":15.6449
},
{
"airport":"LIBA",
"a":8740,
"al":141,
"h":113.81,
"latitude":41.5444,
"longitude":15.6993
},
{
"airport":"LDZU",
"a":9020,
"al":95,
"h":126.7,
"latitude":44.565,
"longitude":15.7604
},
{
"airport":"LDZD",
"a":6570,
"al":128,
"h":221.49,
"latitude":44.0928,
"longitude":15.3577
},
{
"airport":"LDZD",
"a":8210,
"al":131,
"h":315.85,
"latitude":44.1003,
"longitude":15.3574
},
{
"airport":"LDRO",
"a":5315,
"al":0,
"h":147.6,
"latitude":44.852,
"longitude":15.2878
},
{
"airport":"LJNM",
"a":5920,
"al":161,
"h":230.36,
"latitude":45.8058,
"longitude":15.112
},
{
"airport":"LJCE",
"a":7936,
"al":148,
"h":89.02,
"latitude":45.8997,
"longitude":15.5146
},
{
"airport":"LJMB",
"a":8210,
"al":125,
"h":326.24,
"latitude":46.4705,
"longitude":15.6952
},
{
"airport":"LJPT",
"a":7660,
"al":105,
"h":109.77,
"latitude":46.43,
"longitude":15.9747
},
{
"airport":"LOWG",
"a":9830,
"al":144,
"h":169.38,
"latitude":47.0043,
"longitude":15.436
},
{
"airport":"LKCV",
"a":7875,
"al":197,
"h":137.81,
"latitude":49.9477,
"longitude":15.3705
},
{
"airport":"LKHK",
"a":7830,
"al":180,
"h":154.92,
"latitude":50.2629,
"longitude":15.8381
},
{
"airport":"LKPD",
"a":8180,
"al":233,
"h":272.76,
"latitude":50.0129,
"longitude":15.756
},
{
"airport":"EPZN",
"a":8130,
"al":151,
"h":288.3,
"latitude":51.6244,
"longitude":15.4251
},
{
"airport":"EPZG",
"a":8190,
"al":167,
"h":244.71,
"latitude":52.1433,
"longitude":15.8151
},
{
"airport":"EPSN",
"a":8180,
"al":138,
"h":290.98,
"latitude":53.7866,
"longitude":15.844
},
{
"airport":"EPDR",
"a":7540,
"al":89,
"h":301.3,
"latitude":53.4724,
"longitude":15.7459
},
{
"airport":"EP59",
"a":7545,
"al":0,
"h":109.61,
"latitude":53.7645,
"longitude":15.2737
},
{
"airport":"Z24N",
"a":7990,
"al":0,
"h":75,
"latitude":54.1979,
"longitude":15.6689
},
{
"airport":"ESDF",
"a":7640,
"al":148,
"h":188.72,
"latitude":56.2776,
"longitude":15.2683
},
{
"airport":"ESFQ",
"a":6515,
"al":0,
"h":173.23,
"latitude":56.8531,
"longitude":15.4508
},
{
"airport":"ESSF",
"a":6380,
"al":135,
"h":116.06,
"latitude":57.5296,
"longitude":15.8094
},
{
"airport":"ESCF",
"a":6130,
"al":115,
"h":83.38,
"latitude":58.4017,
"longitude":15.5156
},
{
"airport":"ESCF",
"a":7280,
"al":115,
"h":198.36,
"latitude":58.4057,
"longitude":15.5279
},
{
"airport":"ESSL",
"a":6990,
"al":125,
"h":112.15,
"latitude":58.4099,
"longitude":15.6633
},
{
"airport":"ESOE",
"a":8520,
"al":144,
"h":191.66,
"latitude":59.2338,
"longitude":15.042
},
{
"airport":"ESQO",
"a":6550,
"al":128,
"h":327.18,
"latitude":59.3807,
"longitude":15.9306
},
{
"airport":"ESSD",
"a":7580,
"al":144,
"h":132.48,
"latitude":60.4291,
"longitude":15.4998
},
{
"airport":"ESUT",
"a":5700,
"al":82,
"h":152.54,
"latitude":65.8122,
"longitude":15.075
},
{
"airport":"ENSB",
"a":7060,
"al":148,
"h":105.2,
"latitude":78.2486,
"longitude":15.42
},
{
"airport":"FCOD",
"a":10820,
"al":144,
"h":215.21,
"latitude":-1.21452,
"longitude":15.9185
},
{
"airport":"FCOG",
"a":5870,
"al":105,
"h":232.3,
"latitude":-1.82458,
"longitude":15.8913
},
{
"airport":"FZAA",
"a":11050,
"al":197,
"h":57.15,
"latitude":-4.39729,
"longitude":15.4265
},
{
"airport":"FCBB",
"a":10827,
"al":148,
"h":50.09,
"latitude":-4.25879,
"longitude":15.2417
},
{
"airport":"FZAB",
"a":5433,
"al":0,
"h":70.94,
"latitude":-4.32907,
"longitude":15.3204
},
{
"airport":"FNUG",
"a":7780,
"al":98,
"h":185.02,
"latitude":-7.5925,
"longitude":15.0287
},
{
"airport":"FNNG",
"a":8040,
"al":95,
"h":335.18,
"latitude":-7.76427,
"longitude":15.2923
},
{
"airport":"FNHU",
"a":8720,
"al":148,
"h":100.52,
"latitude":-12.8067,
"longitude":15.7485
},
{
"airport":"FN18",
"a":8020,
"al":102,
"h":274.87,
"latitude":-14.7285,
"longitude":15.025
},
{
"airport":"FNGI",
"a":10610,
"al":82,
"h":294.95,
"latitude":-17.0496,
"longitude":15.6976
},
{
"airport":"FYOS",
"a":5290,
"al":39,
"h":336.62,
"latitude":-17.8037,
"longitude":15.7024
},
{
"airport":"FYOA",
"a":5430,
"al":144,
"h":65.43,
"latitude":-17.8838,
"longitude":15.9399
},
{
"airport":"FYOM",
"a":5240,
"al":46,
"h":68.7,
"latitude":-21.4172,
"longitude":15.9313
},
{
"airport":"FYKA",
"a":8380,
"al":141,
"h":243.19,
"latitude":-21.8473,
"longitude":15.9055
},
{
"airport":"FYSS",
"a":6520,
"al":52,
"h":240.07,
"latitude":-24.5079,
"longitude":15.7556
},
{
"airport":"FYWD",
"a":5320,
"al":43,
"h":123.32,
"latitude":-25.1104,
"longitude":15.9899
},
{
"airport":"FYLZ",
"a":5980,
"al":82,
"h":16.76,
"latitude":-26.6915,
"longitude":15.2415
},
{
"airport":"FNWK",
"a":6526,
"al":0,
"h":65.63,
"latitude":-11.4301,
"longitude":15.0932
},
{
"airport":"FCOU",
"a":6730,
"al":95,
"h":14.08,
"latitude":1.60733,
"longitude":16.0353
},
{
"airport":"FTTD",
"a":9830,
"al":144,
"h":34.7,
"latitude":8.61789,
"longitude":16.0668
},
{
"airport":"HL79",
"a":12420,
"al":138,
"h":239.04,
"latitude":25.3656,
"longitude":16.8263
},
{
"airport":"HL72",
"a":6520,
"al":75,
"h":293.34,
"latitude":29.1357,
"longitude":16.1691
},
{
"airport":"HLGD",
"a":11770,
"al":141,
"h":134.43,
"latitude":31.0686,
"longitude":16.5889
},
{
"airport":"HLGD",
"a":11810,
"al":144,
"h":179.3,
"latitude":31.076,
"longitude":16.5938
},
{
"airport":"LICA",
"a":7910,
"al":151,
"h":98.54,
"latitude":38.907,
"longitude":16.2286
},
{
"airport":"LIBV",
"a":9830,
"al":92,
"h":141.01,
"latitude":40.7817,
"longitude":16.9222
},
{
"airport":"LIBV",
"a":9830,
"al":141,
"h":140.92,
"latitude":40.7749,
"longitude":16.9222
},
{
"airport":"LIBD",
"a":7993,
"al":0,
"h":69.44,
"latitude":41.1346,
"longitude":16.7468
},
{
"airport":"LDSP",
"a":8360,
"al":141,
"h":232.5,
"latitude":43.546,
"longitude":16.3106
},
{
"airport":"LDZA",
"a":10630,
"al":144,
"h":46.7,
"latitude":45.7319,
"longitude":16.052
},
{
"airport":"LDVA",
"a":5660,
"al":95,
"h":340.59,
"latitude":46.2872,
"longitude":16.3871
},
{
"airport":"LOXN",
"a":5325,
"al":0,
"h":180.38,
"latitude":47.8451,
"longitude":16.224
},
{
"airport":"LOWW",
"a":11480,
"al":135,
"h":115.99,
"latitude":48.1228,
"longitude":16.5333
},
{
"airport":"LOWW",
"a":11810,
"al":131,
"h":164.22,
"latitude":48.1198,
"longitude":16.5782
},
{
"airport":"LKNA",
"a":7850,
"al":147,
"h":129.01,
"latitude":49.1726,
"longitude":16.1121
},
{
"airport":"LKTB",
"a":8680,
"al":0,
"h":97.52,
"latitude":49.1529,
"longitude":16.6758
},
{
"airport":"LKTB",
"a":8694,
"al":197,
"h":94,
"latitude":49.1529,
"longitude":16.6759
},
{
"airport":"EPLE",
"a":5230,
"al":131,
"h":259.96,
"latitude":51.184,
"longitude":16.1892
},
{
"airport":"EPWR",
"a":8202,
"al":196,
"h":115.94,
"latitude":51.1088,
"longitude":16.8658
},
{
"airport":"EPKS",
"a":8200,
"al":194,
"h":297.9,
"latitude":52.3267,
"longitude":16.9828
},
{
"airport":"EPPG",
"a":7513,
"al":98,
"h":286.15,
"latitude":52.2375,
"longitude":16.2597
},
{
"airport":"EPPO",
"a":8197,
"al":0,
"h":107.56,
"latitude":52.425,
"longitude":16.806
},
{
"airport":"EPPO",
"a":8215,
"al":164,
"h":108,
"latitude":52.4249,
"longitude":16.8061
},
{
"airport":"EPPI",
"a":7860,
"al":200,
"h":35.07,
"latitude":53.1608,
"longitude":16.7002
},
{
"airport":"EPMI",
"a":8212,
"al":148,
"h":124.78,
"latitude":53.3886,
"longitude":16.0673
},
{
"airport":"ESMQ",
"a":7590,
"al":141,
"h":332.23,
"latitude":56.6784,
"longitude":16.2944
},
{
"airport":"ESSP",
"a":7200,
"al":148,
"h":90.84,
"latitude":58.5861,
"longitude":16.2318
},
{
"airport":"ESKN",
"a":9470,
"al":144,
"h":263.14,
"latitude":58.7898,
"longitude":16.93
},
{
"airport":"ESKN",
"a":6680,
"al":128,
"h":341.8,
"latitude":58.7839,
"longitude":16.9151
},
{
"airport":"ESKX",
"a":5482,
"al":82,
"h":120.43,
"latitude":58.7873,
"longitude":16.5576
},
{
"airport":"ESCK",
"a":7367,
"al":125,
"h":147.8,
"latitude":58.6194,
"longitude":16.0932
},
{
"airport":"ESOW",
"a":8420,
"al":148,
"h":191.63,
"latitude":59.6011,
"longitude":16.6384
},
{
"airport":"ESSU",
"a":7120,
"al":112,
"h":178.07,
"latitude":59.3621,
"longitude":16.7077
},
{
"airport":"ESSK",
"a":6540,
"al":148,
"h":180.98,
"latitude":60.6021,
"longitude":16.9515
},
{
"airport":"ESNT",
"a":6562,
"al":82,
"h":122,
"latitude":62.4845,
"longitude":16.9835
},
{
"airport":"ENEV",
"a":9210,
"al":141,
"h":357.68,
"latitude":68.4787,
"longitude":16.6797
},
{
"airport":"ENAN",
"a":5440,
"al":141,
"h":211.89,
"latitude":69.2958,
"longitude":16.15
},
{
"airport":"ENAN",
"a":9800,
"al":138,
"h":329.83,
"latitude":69.2859,
"longitude":16.1548
},
{
"airport":"FNMA",
"a":7210,
"al":102,
"h":303.32,
"latitude":-9.53036,
"longitude":16.3207
},
{
"airport":"FNKU",
"a":8790,
"al":141,
"h":249.16,
"latitude":-12.4002,
"longitude":16.9596
},
{
"airport":"FYEN",
"a":5650,
"al":95,
"h":254.72,
"latitude":-17.4812,
"longitude":16.3298
},
{
"airport":"FYOJ",
"a":6020,
"al":26,
"h":327.32,
"latitude":-20.0822,
"longitude":16.1296
},
{
"airport":"FYOW",
"a":5400,
"al":75,
"h":257.78,
"latitude":-20.4291,
"longitude":16.6691
},
{
"airport":"FYSN",
"a":6070,
"al":82,
"h":232.98,
"latitude":-22.1026,
"longitude":16.9865
},
{
"airport":"FYAS",
"a":7650,
"al":407,
"h":148.38,
"latitude":-26.6843,
"longitude":16.3125
},
{
"airport":"FYAS",
"a":8140,
"al":440,
"h":208.33,
"latitude":-26.6837,
"longitude":16.3251
},
{
"airport":"FYAS",
"a":8380,
"al":440,
"h":268.1,
"latitude":-26.6849,
"longitude":16.3299
},
{
"airport":"FYSA",
"a":5740,
"al":62,
"h":152.42,
"latitude":-27.8691,
"longitude":16.6436
},
{
"airport":"FAAB",
"a":6030,
"al":121,
"h":161.93,
"latitude":-28.5666,
"longitude":16.5302
},
{
"airport":"FAAB",
"a":5580,
"al":154,
"h":222.92,
"latitude":-28.5666,
"longitude":16.5364
},
{
"airport":"FAAB",
"a":5460,
"al":161,
"h":267.18,
"latitude":-28.5672,
"longitude":16.5369
},
{
"airport":"FYOG",
"a":5240,
"al":95,
"h":0.44,
"latitude":-28.592,
"longitude":16.4463
},
{
"airport":"FEFS",
"a":5920,
"al":75,
"h":116.62,
"latitude":6.49567,
"longitude":17.4221
},
{
"airport":"FTTZ",
"a":8980,
"al":49,
"h":246.63,
"latitude":21.454,
"longitude":17.067
},
{
"airport":"Z19X",
"a":12467,
"al":0,
"h":155.41,
"latitude":22.6607,
"longitude":17.6888
},
{
"airport":"HLZA",
"a":5190,
"al":72,
"h":47.08,
"latitude":28.5865,
"longitude":17.2973
},
{
"airport":"HLZA",
"a":6640,
"al":92,
"h":298.47,
"latitude":28.5855,
"longitude":17.3031
},
{
"airport":"HL82",
"a":6227,
"al":0,
"h":180.43,
"latitude":28.9705,
"longitude":17.5882
},
{
"airport":"HLDB",
"a":5906,
"al":0,
"h":181.5,
"latitude":28.9833,
"longitude":17.5888
},
{
"airport":"HLRA",
"a":6850,
"al":95,
"h":126.91,
"latitude":29.4756,
"longitude":17.9225
},
{
"airport":"LIBC",
"a":6560,
"al":148,
"h":168.87,
"latitude":39.0061,
"longitude":17.078
},
{
"airport":"LIBG",
"a":10500,
"al":141,
"h":168.69,
"latitude":40.525,
"longitude":17.4013
},
{
"airport":"LIBR",
"a":5900,
"al":144,
"h":52.51,
"latitude":40.6523,
"longitude":17.9368
},
{
"airport":"LIBR",
"a":9990,
"al":148,
"h":137.16,
"latitude":40.6756,
"longitude":17.9258
},
{
"airport":"LQMO",
"a":7870,
"al":148,
"h":157.86,
"latitude":43.2929,
"longitude":17.8403
},
{
"airport":"LQBK",
"a":8180,
"al":144,
"h":349.54,
"latitude":44.9304,
"longitude":17.3004
},
{
"airport":"LHSM",
"a":8200,
"al":194,
"h":165.34,
"latitude":46.6972,
"longitude":17.1549
},
{
"airport":"LHTA",
"a":8271,
"al":197,
"h":344.85,
"latitude":46.3823,
"longitude":17.9217
},
{
"airport":"LHPA",
"a":7780,
"al":197,
"h":160.42,
"latitude":47.374,
"longitude":17.4953
},
{
"airport":"LHSA",
"a":6550,
"al":190,
"h":159.14,
"latitude":47.0862,
"longitude":17.9637
},
{
"airport":"LZIB",
"a":9590,
"al":200,
"h":43.84,
"latitude":48.1607,
"longitude":17.1993
},
{
"airport":"LZIB",
"a":10470,
"al":141,
"h":314.03,
"latitude":48.1558,
"longitude":17.2349
},
{
"airport":"LZMC",
"a":8038,
"al":185,
"h":20,
"latitude":48.393,
"longitude":17.1143
},
{
"airport":"LZPP",
"a":6512,
"al":98,
"h":13.61,
"latitude":48.6164,
"longitude":17.8254
},
{
"airport":"LZTN",
"a":6552,
"al":98,
"h":42.97,
"latitude":48.8576,
"longitude":17.9829
},
{
"airport":"LKKU",
"a":5545,
"al":0,
"h":25,
"latitude":49.021,
"longitude":17.435
},
{
"airport":"LKKU",
"a":6555,
"al":0,
"h":25.36,
"latitude":49.0213,
"longitude":17.434
},
{
"airport":"LKPO",
"a":8109,
"al":197,
"h":66.07,
"latitude":49.4214,
"longitude":17.3892
},
{
"airport":"LKKU",
"a":6562,
"al":98,
"h":25,
"latitude":49.0213,
"longitude":17.434
},
{
"airport":"LKKU",
"a":5544,
"al":197,
"h":25,
"latitude":49.0211,
"longitude":17.4346
},
{
"airport":"EPPW",
"a":11520,
"al":184,
"h":287.48,
"latitude":52.3743,
"longitude":17.8768
},
{
"airport":"EPPW",
"a":8960,
"al":82,
"h":287.4,
"latitude":52.3786,
"longitude":17.867
},
{
"airport":"EP0A",
"a":7543,
"al":0,
"h":105.21,
"latitude":52.5371,
"longitude":17.2024
},
{
"airport":"EPBY",
"a":8170,
"al":200,
"h":262.03,
"latitude":53.0983,
"longitude":17.9962
},
{
"airport":"EPCE",
"a":8184,
"al":170,
"h":75.99,
"latitude":54.4138,
"longitude":17.7461
},
{
"airport":"ESKS",
"a":6390,
"al":72,
"h":161.36,
"latitude":59.3227,
"longitude":17.1038
},
{
"airport":"ESSA",
"a":8160,
"al":141,
"h":255.85,
"latitude":59.6639,
"longitude":17.9791
},
{
"airport":"ESSA",
"a":8160,
"al":141,
"h":190.4,
"latitude":59.6484,
"longitude":17.9587
},
{
"airport":"ESSA",
"a":10780,
"al":144,
"h":190.36,
"latitude":59.6664,
"longitude":17.9238
},
{
"airport":"ESSB",
"a":6190,
"al":131,
"h":124.98,
"latitude":59.3592,
"longitude":17.928
},
{
"airport":"ESCM",
"a":7041,
"al":0,
"h":254.92,
"latitude":59.8996,
"longitude":17.6054
},
{
"airport":"ESKT",
"a":6562,
"al":0,
"h":162,
"latitude":60.3535,
"longitude":17.4163
},
{
"airport":"ESNY",
"a":8297,
"al":0,
"h":129.58,
"latitude":61.2687,
"longitude":17.0809
},
{
"airport":"ESNN",
"a":6930,
"al":144,
"h":340.18,
"latitude":62.5188,
"longitude":17.4512
},
{
"airport":"ESNK",
"a":6540,
"al":144,
"h":171.49,
"latitude":63.0575,
"longitude":17.7659
},
{
"airport":"ESNI",
"a":7349,
"al":0,
"h":163,
"latitude":63.6421,
"longitude":17.9295
},
{
"airport":"ESUD",
"a":7450,
"al":118,
"h":331.66,
"latitude":64.9519,
"longitude":17.7081
},
{
"airport":"FNME",
"a":11470,
"al":138,
"h":118.52,
"latitude":-14.65,
"longitude":17.7055
},
{
"airport":"FYMO",
"a":7180,
"al":89,
"h":68.17,
"latitude":-18.8165,
"longitude":17.0487
},
{
"airport":"FYTM",
"a":5070,
"al":59,
"h":107.79,
"latitude":-19.26,
"longitude":17.7254
},
{
"airport":"FYWH",
"a":15000,
"al":144,
"h":63.55,
"latitude":-22.4897,
"longitude":17.4496
},
{
"airport":"FYMG",
"a":6520,
"al":82,
"h":195.39,
"latitude":-22.0027,
"longitude":17.3723
},
{
"airport":"FYWE",
"a":7190,
"al":92,
"h":171.24,
"latitude":-22.5952,
"longitude":17.0773
},
{
"airport":"FYPO",
"a":8080,
"al":157,
"h":336.16,
"latitude":-23.6536,
"longitude":17.7291
},
{
"airport":"FYML",
"a":6560,
"al":75,
"h":349.2,
"latitude":-24.612,
"longitude":17.9271
},
{
"airport":"FASB",
"a":5170,
"al":66,
"h":73.95,
"latitude":-29.6913,
"longitude":17.9317
},
{
"airport":"FNCF",
"a":8501,
"al":0,
"h":59.02,
"latitude":-8.77752,
"longitude":17.9805
},
{
"airport":"FYND",
"a":5226,
"al":0,
"h":64.7,
"latitude":-28.7001,
"longitude":17.6141
},
{
"airport":"FZEA",
"a":7180,
"al":135,
"h":173.18,
"latitude":0.03226,
"longitude":18.2875
},
{
"airport":"FCOI",
"a":6720,
"al":92,
"h":260.5,
"latitude":1.59098,
"longitude":18.0559
},
{
"airport":"FZFA",
"a":5210,
"al":135,
"h":155.12,
"latitude":3.63327,
"longitude":18.6354
},
{
"airport":"FEFF",
"a":8510,
"al":138,
"h":165.48,
"latitude":4.41067,
"longitude":18.5164
},
{
"airport":"FTTA",
"a":5900,
"al":135,
"h":215.54,
"latitude":9.15135,
"longitude":18.3795
},
{
"airport":"FTTM",
"a":5370,
"al":59,
"h":238.54,
"latitude":12.174,
"longitude":18.6816
},
{
"airport":"FTTI",
"a":6570,
"al":98,
"h":267.96,
"latitude":13.2401,
"longitude":18.3249
},
{
"airport":"HL80",
"a":6840,
"al":95,
"h":313.21,
"latitude":30.6366,
"longitude":18.3287
},
{
"airport":"HLNF",
"a":5860,
"al":82,
"h":359.36,
"latitude":30.4951,
"longitude":18.5273
},
{
"airport":"LIBN",
"a":6630,
"al":197,
"h":145.8,
"latitude":40.2463,
"longitude":18.1266
},
{
"airport":"LDDU",
"a":10790,
"al":144,
"h":118.29,
"latitude":42.5699,
"longitude":18.2468
},
{
"airport":"LYTV",
"a":8180,
"al":141,
"h":319.02,
"latitude":42.3962,
"longitude":18.7332
},
{
"airport":"LQSA",
"a":8520,
"al":138,
"h":117.43,
"latitude":43.8299,
"longitude":18.3172
},
{
"airport":"LQTZ",
"a":8310,
"al":141,
"h":96.31,
"latitude":44.4599,
"longitude":18.709
},
{
"airport":"LDOS",
"a":8160,
"al":141,
"h":110.61,
"latitude":45.4663,
"longitude":18.7964
},
{
"airport":"LHOY",
"a":5249,
"al":984,
"h":175.6,
"latitude":46.3111,
"longitude":18.7684
},
{
"airport":"LH58",
"a":6720,
"al":66,
"h":220.64,
"latitude":47.3577,
"longitude":18.4391
},
{
"airport":"LHTL",
"a":8150,
"al":203,
"h":142.35,
"latitude":47.3543,
"longitude":18.9708
},
{
"airport":"Z12D",
"a":7635,
"al":0,
"h":11.8,
"latitude":47.1145,
"longitude":18.4996
},
{
"airport":"LKZA",
"a":6713,
"al":98,
"h":98.68,
"latitude":49.9304,
"longitude":18.057
},
{
"airport":"LKMT",
"a":11504,
"al":207,
"h":46.29,
"latitude":49.6853,
"longitude":18.0932
},
{
"airport":"EPKN",
"a":6870,
"al":184,
"h":292.47,
"latitude":50.5258,
"longitude":18.0975
},
{
"airport":"EPIR",
"a":6289,
"al":197,
"h":232.92,
"latitude":52.8344,
"longitude":18.3437
},
{
"airport":"EPOK",
"a":8190,
"al":190,
"h":316.42,
"latitude":54.5715,
"longitude":18.5305
},
{
"airport":"EPGD",
"a":9163,
"al":147,
"h":112.95,
"latitude":54.3811,
"longitude":18.452
},
{
"airport":"ESSV",
"a":6560,
"al":141,
"h":20.95,
"latitude":57.6544,
"longitude":18.3402
},
{
"airport":"ESKA",
"a":6562,
"al":0,
"h":52,
"latitude":60.1272,
"longitude":18.0907
},
{
"airport":"ESNO",
"a":6560,
"al":135,
"h":121.67,
"latitude":63.414,
"longitude":18.9711
},
{
"airport":"ESNL",
"a":6070,
"al":0,
"h":142.94,
"latitude":64.5556,
"longitude":18.7033
},
{
"airport":"ENDU",
"a":9760,
"al":148,
"h":108.84,
"latitude":69.0601,
"longitude":18.5034
},
{
"airport":"ENTC",
"a":6570,
"al":138,
"h":193.01,
"latitude":69.6904,
"longitude":18.9236
},
{
"airport":"FNLZ",
"a":5120,
"al":141,
"h":210.37,
"latitude":-9.10987,
"longitude":18.0529
},
{
"airport":"FYGF",
"a":11650,
"al":148,
"h":67.67,
"latitude":-19.6048,
"longitude":18.1159
},
{
"airport":"FZCA",
"a":5110,
"al":89,
"h":45.97,
"latitude":-5.04062,
"longitude":18.7806
},
{
"airport":"FNCX",
"a":6470,
"al":161,
"h":110.72,
"latitude":-8.36994,
"longitude":18.9155
},
{
"airport":"FYKT",
"a":7590,
"al":135,
"h":195.82,
"latitude":-26.5297,
"longitude":18.1147
},
{
"airport":"FYKB",
"a":5300,
"al":89,
"h":232.17,
"latitude":-28.0276,
"longitude":18.7416
},
{
"airport":"FAVA",
"a":5170,
"al":89,
"h":43.71,
"latitude":-30.1366,
"longitude":18.5228
},
{
"airport":"FAVA",
"a":5130,
"al":82,
"h":134.02,
"latitude":-30.128,
"longitude":18.5195
},
{
"airport":"FALW",
"a":5850,
"al":128,
"h":136.39,
"latitude":-32.9671,
"longitude":18.1553
},
{
"airport":"FALW",
"a":7370,
"al":141,
"h":1.19,
"latitude":-32.9794,
"longitude":18.162
},
{
"airport":"FALW",
"a":7550,
"al":138,
"h":1.19,
"latitude":-32.9795,
"longitude":18.166
},
{
"airport":"FACT",
"a":5580,
"al":148,
"h":135.33,
"latitude":-33.9614,
"longitude":18.5975
},
{
"airport":"FACT",
"a":10500,
"al":194,
"h":165.3,
"latitude":-33.9599,
"longitude":18.6001
},
{
"airport":"FAYP",
"a":5170,
"al":85,
"h":355.65,
"latitude":-33.9084,
"longitude":18.4988
},
{
"airport":"FYGB",
"a":7400,
"al":102,
"h":50.86,
"latitude":-22.5113,
"longitude":18.9642
},
{
"airport":"FYGB",
"a":5190,
"al":105,
"h":96.26,
"latitude":-22.4997,
"longitude":18.9719
},
{
"airport":"FAAG",
"a":6820,
"al":52,
"h":229.02,
"latitude":-29.2757,
"longitude":18.8219
},
{
"airport":"FYVF",
"a":5338,
"al":197,
"h":184.99,
"latitude":-23.4342,
"longitude":18.2703
},
{
"airport":"FYVF",
"a":6558,
"al":295,
"h":72.22,
"latitude":-23.4287,
"longitude":18.2689
},
{
"airport":"FZFK",
"a":6457,
"al":0,
"h":102.37,
"latitude":3.23726,
"longitude":19.7626
},
{
"airport":"FTTY",
"a":9170,
"al":128,
"h":58.19,
"latitude":17.9109,
"longitude":19.1
},
{
"airport":"HL50",
"a":5150,
"al":92,
"h":193.34,
"latitude":28.5932,
"longitude":19.305
},
{
"airport":"HLWA",
"a":6860,
"al":98,
"h":359.4,
"latitude":28.3128,
"longitude":19.9302
},
{
"airport":"HLBD",
"a":7484,
"al":0,
"h":352.01,
"latitude":28.4931,
"longitude":19.0046
},
{
"airport":"HL74",
"a":7495,
"al":0,
"h":171.51,
"latitude":28.5084,
"longitude":19.0026
},
{
"airport":"HLZT",
"a":5906,
"al":0,
"h":151.8,
"latitude":28.9632,
"longitude":19.7667
},
{
"airport":"HL63",
"a":6918,
"al":0,
"h":178,
"latitude":28.3318,
"longitude":19.9299
},
{
"airport":"HLMB",
"a":7220,
"al":89,
"h":146.2,
"latitude":30.3869,
"longitude":19.5696
},
{
"airport":"LGKR",
"a":7790,
"al":128,
"h":168.71,
"latitude":39.6125,
"longitude":19.9094
},
{
"airport":"LAKV",
"a":9350,
"al":207,
"h":137.41,
"latitude":40.7812,
"longitude":19.8907
},
{
"airport":"LAGJ",
"a":9180,
"al":197,
"h":334.25,
"latitude":41.8838,
"longitude":19.606
},
{
"airport":"LATI",
"a":9010,
"al":144,
"h":354.32,
"latitude":41.4025,
"longitude":19.7222
},
{
"airport":"LYPG",
"a":8150,
"al":128,
"h":4.28,
"latitude":42.3483,
"longitude":19.2508
},
{
"airport":"LYBR",
"a":6210,
"al":141,
"h":10.47,
"latitude":42.8307,
"longitude":19.86
},
{
"airport":"LY88",
"a":10052,
"al":0,
"h":107.12,
"latitude":43.903,
"longitude":19.6795
},
{
"airport":"LYSO",
"a":5876,
"al":197,
"h":138.06,
"latitude":45.7161,
"longitude":19.0502
},
{
"airport":"LYSO",
"a":5217,
"al":492,
"h":138.03,
"latitude":45.7161,
"longitude":19.0501
},
{
"airport":"LHKE",
"a":8170,
"al":194,
"h":302.88,
"latitude":46.9114,
"longitude":19.7629
},
{
"airport":"LHKE",
"a":7870,
"al":164,
"h":302.81,
"latitude":46.9127,
"longitude":19.7634
},
{
"airport":"LHBP",
"a":12150,
"al":141,
"h":132.44,
"latitude":47.4454,
"longitude":19.2575
},
{
"airport":"LHBP",
"a":9870,
"al":141,
"h":132.41,
"latitude":47.4487,
"longitude":19.2207
},